[{"name":"Walmart","url":"http://fortune.com/fortune500/walmart-1/","city_name":"Bentonville","city_state":"AR","industry":"General Merchandisers","ranking":"1","employee":2200000,"city_lat":36.357703,"city_lon":-94.22242,"dropbox":423309},{"name":"Exxon Mobil","url":"http://fortune.com/fortune500/exxon-mobil-2/","city_name":"Irving","city_state":"TX","industry":"Petroleum Refining","ranking":"2","employee":83700,"city_lat":32.924686,"city_lon":-96.959817,"dropbox":24600},{"name":"Chevron","url":"http://fortune.com/fortune500/chevron-3/","city_name":"San Ramon","city_state":"CA","industry":"Petroleum Refining","ranking":"3","employee":64700,"city_lat":37.756188,"city_lon":-121.952224,"dropbox":3052},{"name":"Berkshire Hathaway","url":"http://fortune.com/fortune500/berkshire-hathaway-4/","city_name":"Omaha","city_state":"NE","industry":"Insurance: Property and Casualty (Stock)","ranking":"4","employee":316000,"city_lat":41.29552,"city_lon":-96.100793,"dropbox":94360},{"name":"Apple","url":"http://fortune.com/fortune500/apple-5/","city_name":"Cupertino","city_state":"CA","industry":"Computers, Office Equipment","ranking":"5","employee":97200,"dropbox":3254},{"name":"General Motors","url":"http://fortune.com/fortune500/general-motors-6/","city_name":"Detroit","city_state":"MI","industry":"Motor Vehicles and Parts","ranking":"6","employee":216000,"city_lat":42.220718,"city_lon":-83.377081,"dropbox":18012},{"name":"Phillips 66","url":"http://fortune.com/fortune500/phillips-66-7/","city_name":"Houston","city_state":"TX","industry":"Petroleum Refining","ranking":"7","employee":14000,"city_lat":29.670869,"city_lon":-95.586613,"dropbox":4630},{"name":"General Electric","url":"http://fortune.com/fortune500/general-electric-8/","city_name":"Fairfield","city_state":"CT","industry":"Diversified Financials","ranking":"8","employee":305000,"city_lat":41.201651,"city_lon":-73.235408,"dropbox":68757},{"name":"Ford Motor","url":"http://fortune.com/fortune500/ford-motor-9/","city_name":"Dearborn","city_state":"MI","industry":"Motor Vehicles and Parts","ranking":"9","employee":187000,"city_lat":42.319981,"city_lon":-83.270131,"dropbox":45000},{"name":"CVS Health","url":"http://fortune.com/fortune500/cvs-health-10/","city_name":"Woonsocket","city_state":"RI","industry":"Food and Drug Stores","ranking":"10","employee":177800,"dropbox":40279},{"name":"McKesson","url":"http://fortune.com/fortune500/mckesson-11/","city_name":"San Francisco","city_state":"CA","industry":"Wholesalers: Health Care","ranking":"11","employee":42800,"city_lat":37.718968,"city_lon":-122.409577,"dropbox":6068},{"name":"AT&T","url":"http://fortune.com/fortune500/att-12/","city_name":"Dallas","city_state":"TX","industry":"Telecommunications","ranking":"12","employee":243620,"city_lat":33.000458,"city_lon":-96.83143,"dropbox":41746},{"name":"Valero Energy","url":"http://fortune.com/fortune500/valero-energy-13/","city_name":"San Antonio","city_state":"TX","industry":"Petroleum Refining","ranking":"13","employee":10065,"city_lat":29.173345,"city_lon":-98.472272,"dropbox":529},{"name":"UnitedHealth Group","url":"http://fortune.com/fortune500/unitedhealth-group-14/","city_name":"Minnetonka","city_state":"MN","industry":"Health Care: Insurance and Managed Care","ranking":"14","employee":170000,"city_lat":44.913808,"city_lon":-93.484997,"dropbox":38052},{"name":"Verizon","url":"http://fortune.com/fortune500/verizon-15/","city_name":"New York","city_state":"NY","industry":"Telecommunications","ranking":"15","employee":177300,"city_lat":40.710537,"city_lon":-74.016323,"dropbox":40069},{"name":"AmerisourceBergen","url":"http://fortune.com/fortune500/amerisourcebergen-16/","city_name":"Chesterbrook","city_state":"PA","industry":"Wholesalers: Health Care","ranking":"16","employee":13500,"dropbox":589},{"name":"Fannie Mae","url":"http://fortune.com/fortune500/fannie-mae-17/","city_name":"Washington","city_state":"DC","industry":"Diversified Financials","ranking":"17","employee":7600,"city_lat":38.839473,"city_lon":-77.014827,"dropbox":2200},{"name":"Costco","url":"http://fortune.com/fortune500/costco-18/","city_name":"Issaquah","city_state":"WA","industry":"Specialty Retailers: Other","ranking":"18","employee":153500,"city_lat":47.550911,"city_lon":-122.033517,"dropbox":20147},{"name":"HP","url":"http://fortune.com/fortune500/hp-19/","city_name":"Palo Alto","city_state":"CA","industry":"Computers, Office Equipment","ranking":"19","employee":302000,"city_lat":37.418009,"city_lon":-122.127375,"dropbox":60543},{"name":"Kroger","url":"http://fortune.com/fortune500/kroger-20/","city_name":"Cincinnati","city_state":"OH","industry":"Food and Drug Stores","ranking":"20","employee":400000,"city_lat":39.266803,"city_lon":-84.62832,"dropbox":22831},{"name":"JP Morgan Chase","url":"http://fortune.com/fortune500/jp-morgan-chase-21/","city_name":"New York","city_state":"NY","industry":"Commercial Banks","ranking":"21","employee":241359,"city_lat":40.710537,"city_lon":-74.016323,"dropbox":33972},{"name":"Express Scripts Holding","url":"http://fortune.com/fortune500/express-scripts-holding-22/","city_name":"St. Louis","city_state":"MO","industry":"Health Care: Pharmacy and Other Services","ranking":"22","employee":29500,"dropbox":6343},{"name":"Bank of America Corp.","url":"http://fortune.com/fortune500/bank-of-america-corp-23/","city_name":"Charlotte","city_state":"NC","industry":"Commercial Banks","ranking":"23","employee":223715,"city_lat":35.146685,"city_lon":-80.960421,"dropbox":71205},{"name":"IBM","url":"http://fortune.com/fortune500/ibm-24/","city_name":"Armonk","city_state":"NY","industry":"Information Technology Services","ranking":"24","employee":412775,"city_lat":41.136002,"city_lon":-73.700942,"dropbox":87552},{"name":"Marathon Petroleum","url":"http://fortune.com/fortune500/marathon-petroleum-25/","city_name":"Findlay","city_state":"OH","industry":"Petroleum Refining","ranking":"25","employee":45340,"city_lat":41.044903,"city_lon":-83.645656,"dropbox":15429},{"name":"Cardinal Health","url":"http://fortune.com/fortune500/cardinal-health-26/","city_name":"Dublin","city_state":"OH","industry":"Wholesalers: Health Care","ranking":"26","employee":34000,"city_lat":40.109297,"city_lon":-83.114633,"dropbox":8084},{"name":"Boeing","url":"http://fortune.com/fortune500/boeing-27/","city_name":"Chicago","city_state":"IL","industry":"Aerospace and Defense","ranking":"27","employee":165500,"city_lat":41.881351,"city_lon":-87.642969,"dropbox":55109},{"name":"Citigroup","url":"http://fortune.com/fortune500/citigroup-28/","city_name":"New York","city_state":"NY","industry":"Commercial Banks","ranking":"28","employee":241000,"city_lat":40.710537,"city_lon":-74.016323,"dropbox":35881},{"name":"Amazon.com","url":"http://fortune.com/fortune500/amazon-com-29/","city_name":"Seattle","city_state":"WA","industry":"Internet Services and Retailing","ranking":"29","employee":154100,"city_lat":47.648845,"city_lon":-122.396357,"dropbox":39159},{"name":"Wells Fargo","url":"http://fortune.com/fortune500/wells-fargo-30/","city_name":"San Francisco","city_state":"CA","industry":"Commercial Banks","ranking":"30","employee":264500,"city_lat":37.718968,"city_lon":-122.409577,"dropbox":100189},{"name":"Microsoft","url":"http://fortune.com/fortune500/microsoft-31/","city_name":"Redmond","city_state":"WA","industry":"Computer Software","ranking":"31","employee":128000,"city_lat":47.646238,"city_lon":-122.038578,"dropbox":27565},{"name":"Procter & Gamble","url":"http://fortune.com/fortune500/procter-gamble-32/","city_name":"Cincinnati","city_state":"OH","industry":"Household and Personal Products","ranking":"32","employee":118000,"city_lat":39.266803,"city_lon":-84.62832,"dropbox":44765},{"name":"Home Depot","url":"http://fortune.com/fortune500/home-depot-33/","city_name":"Atlanta","city_state":"GA","industry":"Specialty Retailers: Other","ranking":"33","employee":371000,"city_lat":33.937772,"city_lon":-84.271645,"dropbox":117308},{"name":"Archer Daniels Midland","url":"http://fortune.com/fortune500/archer-daniels-midland-34/","city_name":"Chicago","city_state":"IL","industry":"Food Production","ranking":"34","employee":33900,"city_lat":41.881351,"city_lon":-87.642969,"dropbox":10509},{"name":"Walgreens","url":"http://fortune.com/fortune500/walgreens-35/","city_name":"Deerfield","city_state":"IL","industry":"Food and Drug Stores","ranking":"35","employee":213000,"city_lat":42.170494,"city_lon":-87.859033,"dropbox":55813},{"name":"Target","url":"http://fortune.com/fortune500/target-36/","city_name":"Minneapolis","city_state":"MN","industry":"General Merchandisers","ranking":"36","employee":347000,"city_lat":44.981562,"city_lon":-93.23928,"dropbox":38252},{"name":"Johnson & Johnson","url":"http://fortune.com/fortune500/johnson-johnson-37/","city_name":"New Brunswick","city_state":"NJ","industry":"Pharmaceuticals","ranking":"37","employee":126500,"city_lat":40.489073,"city_lon":-74.448193,"dropbox":40197},{"name":"Anthem","url":"http://fortune.com/fortune500/anthem-38/","city_name":"Indianapolis","city_state":"IN","industry":"Health Care: Insurance and Managed Care","ranking":"38","employee":51500,"city_lat":39.740599,"city_lon":-86.156944,"dropbox":12726},{"name":"MetLife","url":"http://fortune.com/fortune500/metlife-39/","city_name":"New York","city_state":"NY","industry":"Insurance: Life, Health (stock)","ranking":"39","employee":68000,"city_lat":40.710537,"city_lon":-74.016323,"dropbox":26516},{"name":"Google","url":"http://fortune.com/fortune500/google-40/","city_name":"Mountain View","city_state":"CA","industry":"Internet Services and Retailing","ranking":"40","employee":53600,"city_lat":37.405567,"city_lon":-122.077468,"dropbox":19737},{"name":"State Farm Insurance Cos.","url":"http://fortune.com/fortune500/state-farm-insurance-cos-41/","city_name":"Bloomington","city_state":"IL","industry":"Insurance: Property and Casualty (Mutual)","ranking":"41","employee":73262,"city_lat":40.471618,"city_lon":-88.962466,"dropbox":7848},{"name":"Freddie Mac","url":"http://fortune.com/fortune500/freddie-mac-42/","city_name":"McLean","city_state":"VA","industry":"Diversified Financials","ranking":"42","employee":4982,"dropbox":1748},{"name":"Comcast","url":"http://fortune.com/fortune500/comcast-43/","city_name":"Philadelphia","city_state":"PA","industry":"Telecommunications","ranking":"43","employee":139000,"city_lat":40.089738,"city_lon":-74.978052,"dropbox":47800},{"name":"PepsiCo","url":"http://fortune.com/fortune500/pepsi-44/","city_name":"Purchase","city_state":"NY","industry":"Food Consumer Products","ranking":"44","employee":271000,"city_lat":41.038396,"city_lon":-73.715629,"dropbox":84446},{"name":"United Technologies","url":"http://fortune.com/fortune500/united-technologies-45/","city_name":"Hartford","city_state":"CT","industry":"Aerospace and Defense","ranking":"45","employee":211500,"city_lat":41.78596,"city_lon":-72.675807,"dropbox":429},{"name":"AIG","url":"http://fortune.com/fortune500/aig-46/","city_name":"New York","city_state":"NY","industry":"Insurance: Property and Casualty (Stock)","ranking":"46","employee":65000,"city_lat":40.710537,"city_lon":-74.016323,"dropbox":22894},{"name":"UPS","url":"http://fortune.com/fortune500/ups-47/","city_name":"Atlanta","city_state":"GA","industry":"Mail, Package, and Freight Delivery","ranking":"47","employee":336150,"city_lat":33.937772,"city_lon":-84.271645,"dropbox":64390},{"name":"Dow Chemical","url":"http://fortune.com/fortune500/dow-chemical-48/","city_name":"Midland","city_state":"MI","industry":"Chemicals","ranking":"48","employee":53216,"city_lat":43.637488,"city_lon":-84.197941,"dropbox":3939},{"name":"Aetna","url":"http://fortune.com/fortune500/aetna-49/","city_name":"Hartford","city_state":"CT","industry":"Health Care: Insurance and Managed Care","ranking":"49","employee":48800,"city_lat":41.78596,"city_lon":-72.675807,"dropbox":15205},{"name":"Lowe's","url":"http://fortune.com/fortune500/lowes-50/","city_name":"Mooresville","city_state":"NC","industry":"Specialty Retailers: Other","ranking":"50","employee":220500,"city_lat":35.577358,"city_lon":-80.822629,"dropbox":24995},{"name":"ConocoPhillips","url":"http://fortune.com/fortune500/conocophillips-51/","city_name":"Houston","city_state":"TX","industry":"Mining, Crude-Oil Production","ranking":"51","employee":19100,"city_lat":29.670869,"city_lon":-95.586613,"dropbox":1103},{"name":"Intel","url":"http://fortune.com/fortune500/intel-52/","city_name":"Santa Clara","city_state":"CA","industry":"Semiconductors and Other Electronic Components","ranking":"52","employee":106700,"city_lat":37.394673,"city_lon":-121.95394,"dropbox":35099},{"name":"Energy Transfer Equity","url":"http://fortune.com/fortune500/energy-transfer-equity-53/","city_name":"Dallas","city_state":"TX","industry":"Pipelines","ranking":"53","employee":27605,"city_lat":33.000458,"city_lon":-96.83143,"dropbox":4001},{"name":"Caterpillar","url":"http://fortune.com/fortune500/caterpillar-54/","city_name":"Peoria","city_state":"IL","industry":"Construction and Farm Machinery","ranking":"54","employee":114233,"city_lat":40.770165,"city_lon":-89.632083,"dropbox":15934},{"name":"Prudential Financial","url":"http://fortune.com/fortune500/prudential-financial-55/","city_name":"Newark","city_state":"NJ","industry":"Insurance: Life, Health (stock)","ranking":"55","employee":48331,"city_lat":40.708246,"city_lon":-74.189105,"dropbox":3113},{"name":"Pfizer","url":"http://fortune.com/fortune500/pfizer-56/","city_name":"New York","city_state":"NY","industry":"Pharmaceuticals","ranking":"56","employee":78300,"city_lat":40.710537,"city_lon":-74.016323,"dropbox":6966},{"name":"Disney","url":"http://fortune.com/fortune500/disney-57/","city_name":"Burbank","city_state":"CA","industry":"Entertainment","ranking":"57","employee":180000,"city_lat":34.171746,"city_lon":-118.323148,"dropbox":8042},{"name":"Humana","url":"http://fortune.com/fortune500/humana-58/","city_name":"Louisville","city_state":"KY","industry":"Health Care: Insurance and Managed Care","ranking":"58","employee":57000,"city_lat":38.268273,"city_lon":-85.484461,"dropbox":16053},{"name":"Enterprise Products Partners","url":"http://fortune.com/fortune500/enterprise-products-partners-59/","city_name":"Houston","city_state":"TX","industry":"Pipelines","ranking":"59","employee":6900,"city_lat":29.670869,"city_lon":-95.586613,"dropbox":636},{"name":"Cisco Systems","url":"http://fortune.com/fortune500/cisco-systems-60/","city_name":"San Jose","city_state":"CA","industry":"Network and Other Communications Equipment","ranking":"60","employee":74042,"city_lat":37.329765,"city_lon":-121.792111,"dropbox":6021},{"name":"Sysco","url":"http://fortune.com/fortune500/sysco-61/","city_name":"Houston","city_state":"TX","industry":"Wholesalers: Food and Grocery","ranking":"61","employee":50300,"city_lat":29.670869,"city_lon":-95.586613,"dropbox":1361},{"name":"Ingram Micro","url":"http://fortune.com/fortune500/ingram-micro-62/","city_name":"Santa Ana","city_state":"CA","industry":"Wholesalers: Electronics and Office Equipment","ranking":"62","employee":21700,"city_lat":33.764434,"city_lon":-117.881791,"dropbox":6164},{"name":"Coca-Cola","url":"http://fortune.com/fortune500/coca-cola-63/","city_name":"Atlanta","city_state":"GA","industry":"Beverages","ranking":"63","employee":129200,"city_lat":33.937772,"city_lon":-84.271645,"dropbox":17029},{"name":"Lockheed Martin","url":"http://fortune.com/fortune500/lockheed-martin-64/","city_name":"Bethesda","city_state":"MD","industry":"Aerospace and Defense","ranking":"64","employee":112000,"city_lat":38.958485,"city_lon":-77.11528,"dropbox":29621},{"name":"FedEx","url":"http://fortune.com/fortune500/fedex-65/","city_name":"Memphis","city_state":"TN","industry":"Mail, Package, and Freight Delivery","ranking":"65","employee":298099,"city_lat":35.023091,"city_lon":-89.84916,"dropbox":114440},{"name":"Johnson Controls","url":"http://fortune.com/fortune500/johnson-controls-66/","city_name":"Milwaukee","city_state":"WI","industry":"Motor Vehicles and Parts","ranking":"66","employee":168000,"city_lat":43.040738,"city_lon":-87.93566,"dropbox":52536},{"name":"Plains GP Holdings","url":"http://fortune.com/fortune500/plains-gp-holdings-67/","city_name":"Houston","city_state":"TX","industry":"Pipelines","ranking":"67","employee":5300,"city_lat":29.670869,"city_lon":-95.586613,"dropbox":1702},{"name":"World Fuel Services","url":"http://fortune.com/fortune500/world-fuel-services-68/","city_name":"Miami","city_state":"FL","industry":"Wholesalers: Diversified","ranking":"68","employee":4041,"city_lat":25.661502,"city_lon":-80.441031,"dropbox":1303},{"name":"CHS","url":"http://fortune.com/fortune500/chs-69/","city_name":"Inver Grove Heights","city_state":"MN","industry":"Food Production","ranking":"69","employee":11824,"dropbox":1487},{"name":"American Airlines Group","url":"http://fortune.com/fortune500/american-airlines-group-70/","city_name":"Fort Worth","city_state":"TX","industry":"Airlines","ranking":"70","employee":113300,"city_lat":32.901017,"city_lon":-97.332671,"dropbox":21062},{"name":"Merck","url":"http://fortune.com/fortune500/merck-71/","city_name":"Kenilworth","city_state":"NJ","industry":"Pharmaceuticals","ranking":"71","employee":70000,"city_lat":40.675869,"city_lon":-74.294419,"dropbox":3225},{"name":"Best Buy","url":"http://fortune.com/fortune500/best-buy-72/","city_name":"Richfield","city_state":"MN","industry":"Specialty Retailers: Other","ranking":"72","employee":125000,"city_lat":44.875731,"city_lon":-93.281351,"dropbox":31118},{"name":"Delta Air Lines","url":"http://fortune.com/fortune500/delta-air-lines-73/","city_name":"Atlanta","city_state":"GA","industry":"Airlines","ranking":"73","employee":79655,"city_lat":33.937772,"city_lon":-84.271645,"dropbox":2680},{"name":"Honeywell International","url":"http://fortune.com/fortune500/honeywell-international-74/","city_name":"Morris Township","city_state":"NJ","industry":"Electronics, Electrical Equip.","ranking":"74","employee":127000,"dropbox":2570},{"name":"HCA Holdings","url":"http://fortune.com/fortune500/hca-holdings-75/","city_name":"Nashville","city_state":"TN","industry":"Health Care: Medical Facilities","ranking":"75","employee":197000,"city_lat":36.190145,"city_lon":-86.805264,"dropbox":36558},{"name":"Goldman Sachs Group","url":"http://fortune.com/fortune500/goldman-sachs-group-76/","city_name":"New York","city_state":"NY","industry":"Commercial Banks","ranking":"76","employee":34000,"city_lat":40.710537,"city_lon":-74.016323,"dropbox":3589},{"name":"Tesoro","url":"http://fortune.com/fortune500/tesoro-77/","city_name":"San Antonio","city_state":"TX","industry":"Petroleum Refining","ranking":"77","employee":5641,"city_lat":29.173345,"city_lon":-98.472272,"dropbox":1254},{"name":"Liberty Mutual Insurance Group","url":"http://fortune.com/fortune500/liberty-mutual-insurance-group-78/","city_name":"Boston","city_state":"MA","industry":"Insurance: Property and Casualty (Stock)","ranking":"78","employee":50000,"city_lat":42.347088,"city_lon":-71.102689,"dropbox":10360},{"name":"United Continental Holdings","url":"http://fortune.com/fortune500/united-continental-holdings-79/","city_name":"Chicago","city_state":"IL","industry":"Airlines","ranking":"79","employee":84000,"city_lat":41.881351,"city_lon":-87.642969,"dropbox":5619},{"name":"New York Life Insurance","url":"http://fortune.com/fortune500/new-york-life-insurance-80/","city_name":"New York","city_state":"NY","industry":"Insurance: Life, Health (Mutual)","ranking":"80","employee":11563,"city_lat":40.710537,"city_lon":-74.016323,"dropbox":1650},{"name":"Oracle","url":"http://fortune.com/fortune500/oracle-81/","city_name":"Redwood City","city_state":"CA","industry":"Computer Software","ranking":"81","employee":122000,"city_lat":37.533128,"city_lon":-122.248564,"dropbox":26097},{"name":"Morgan Stanley","url":"http://fortune.com/fortune500/morgan-stanley-82/","city_name":"New York","city_state":"NY","industry":"Commercial Banks","ranking":"82","employee":55802,"city_lat":40.710537,"city_lon":-74.016323,"dropbox":5808},{"name":"Tyson Foods","url":"http://fortune.com/fortune500/tyson-foods-83/","city_name":"Springdale","city_state":"AR","industry":"Food Production","ranking":"83","employee":124000,"city_lat":36.183521,"city_lon":-94.176216,"dropbox":37298},{"name":"Safeway","url":"http://fortune.com/fortune500/safeway-84/","city_name":"Pleasanton","city_state":"CA","industry":"Food and Drug Stores","ranking":"84","employee":137000,"city_lat":37.687311,"city_lon":-121.8957,"dropbox":53219},{"name":"Nationwide","url":"http://fortune.com/fortune500/nationwide-85/","city_name":"Columbus","city_state":"OH","industry":"Insurance: Property and Casualty (Mutual)","ranking":"85","employee":33672,"city_lat":39.923024,"city_lon":-82.866432,"dropbox":8702},{"name":"Deere","url":"http://fortune.com/fortune500/deere-86/","city_name":"Moline","city_state":"IL","industry":"Construction and Farm Machinery","ranking":"86","employee":59623,"city_lat":41.490609,"city_lon":-90.497968,"dropbox":22406},{"name":"DuPont","url":"http://fortune.com/fortune500/dupont-87/","city_name":"Wilmington","city_state":"DE","industry":"Chemicals","ranking":"87","employee":63000,"city_lat":39.757076,"city_lon":-75.563503,"dropbox":23126},{"name":"American Express","url":"http://fortune.com/fortune500/american-express-88/","city_name":"New York","city_state":"NY","industry":"Commercial Banks","ranking":"88","employee":54000,"city_lat":40.710537,"city_lon":-74.016323,"dropbox":5557},{"name":"Allstate","url":"http://fortune.com/fortune500/allstate-89/","city_name":"Northbrook","city_state":"IL","industry":"Insurance: Property and Casualty (Stock)","ranking":"89","employee":39950,"city_lat":42.125443,"city_lon":-87.846535,"dropbox":10028},{"name":"Cigna","url":"http://fortune.com/fortune500/cigna-90/","city_name":"Bloomfield","city_state":"CT","industry":"Health Care: Insurance and Managed Care","ranking":"90","employee":37200,"city_lat":41.831647,"city_lon":-72.72493,"dropbox":11672},{"name":"Mondelez International","url":"http://fortune.com/fortune500/mondelez-international-91/","city_name":"Deerfield","city_state":"IL","industry":"Food Consumer Products","ranking":"91","employee":104000,"city_lat":42.170494,"city_lon":-87.859033,"dropbox":5485},{"name":"TIAA-CREF","url":"http://fortune.com/fortune500/tiaa-cref-92/","city_name":"New York","city_state":"NY","industry":"Insurance: Life, Health (Mutual)","ranking":"92","employee":12322,"city_lat":40.710537,"city_lon":-74.016323,"dropbox":2983},{"name":"INTL FCStone","url":"http://fortune.com/fortune500/intl-fcstone-93/","city_name":"New York","city_state":"NY","industry":"Diversified Financials","ranking":"93","employee":1141,"city_lat":40.710537,"city_lon":-74.016323,"dropbox":345},{"name":"Massachusetts Mutual Life Insurance","url":"http://fortune.com/fortune500/massachusetts-mutual-life-insurance-94/","city_name":"Springfield","city_state":"MA","industry":"Insurance: Life, Health (Mutual)","ranking":"94","employee":11418,"city_lat":42.122263,"city_lon":-72.487622,"dropbox":4232},{"name":"DirecTV","url":"http://fortune.com/fortune500/directv-95/","city_name":"El Segundo","city_state":"CA","industry":"Telecommunications","ranking":"95","employee":30925,"city_lat":33.924275,"city_lon":-118.411924,"dropbox":11137},{"name":"Halliburton","url":"http://fortune.com/fortune500/halliburton-96/","city_name":"Houston","city_state":"TX","industry":"Oil and Gas Equipment, Services","ranking":"96","employee":80000,"city_lat":29.670869,"city_lon":-95.586613,"dropbox":699},{"name":"Twenty-First Century Fox","url":"http://fortune.com/fortune500/twenty-first-century-fox-97/","city_name":"New York","city_state":"NY","industry":"Entertainment","ranking":"97","employee":27000,"city_lat":40.710537,"city_lon":-74.016323,"dropbox":10466},{"name":"3M","url":"http://fortune.com/fortune500/3m-98/","city_name":"St. Paul","city_state":"MN","industry":"zMiscellaneous","ranking":"98","employee":89800,"dropbox":14532},{"name":"Sears Holdings","url":"http://fortune.com/fortune500/sears-holdings-99/","city_name":"Hoffman Estates","city_state":"IL","industry":"General Merchandisers","ranking":"99","employee":196000,"city_lat":42.073865,"city_lon":-88.108709,"dropbox":10075},{"name":"General Dynamics","url":"http://fortune.com/fortune500/general-dynamics-100/","city_name":"Falls Church","city_state":"VA","industry":"Aerospace and Defense","ranking":"100","employee":99500,"city_lat":38.88559,"city_lon":-77.180231,"dropbox":37773},{"name":"Publix Super Markets","url":"http://fortune.com/fortune500/publix-super-markets-101/","city_name":"Lakeland","city_state":"FL","industry":"Food and Drug Stores","ranking":"101","employee":175000,"city_lat":28.123356,"city_lon":-81.984219,"dropbox":15631},{"name":"Philip Morris International","url":"http://fortune.com/fortune500/philip-morris-international-102/","city_name":"New York","city_state":"NY","industry":"Tobacco","ranking":"102","employee":82500,"city_lat":40.710537,"city_lon":-74.016323,"dropbox":31203},{"name":"TJX","url":"http://fortune.com/fortune500/tjx-103/","city_name":"Framingham","city_state":"MA","industry":"Specialty Retailers: Apparel","ranking":"103","employee":198000,"city_lat":42.300665,"city_lon":-71.425486,"dropbox":61117},{"name":"Time Warner","url":"http://fortune.com/fortune500/time-warner-104/","city_name":"New York","city_state":"NY","industry":"Entertainment","ranking":"104","employee":25600,"city_lat":40.710537,"city_lon":-74.016323,"dropbox":3409},{"name":"Macy's","url":"http://fortune.com/fortune500/macys-105/","city_name":"Cincinnati","city_state":"OH","industry":"General Merchandisers","ranking":"105","employee":166900,"city_lat":39.266803,"city_lon":-84.62832,"dropbox":9006},{"name":"Nike","url":"http://fortune.com/fortune500/nike-106/","city_name":"Beaverton","city_state":"OR","industry":"Apparel","ranking":"106","employee":56500,"city_lat":45.475035,"city_lon":-122.805395,"dropbox":7640},{"name":"Tech Data","url":"http://fortune.com/fortune500/tech-data-107/","city_name":"Clearwater","city_state":"FL","industry":"Wholesalers: Electronics and Office Equipment","ranking":"107","employee":8900,"city_lat":27.984526,"city_lon":-82.822281,"dropbox":2286},{"name":"Avnet","url":"http://fortune.com/fortune500/avnet-108/","city_name":"Phoenix","city_state":"AZ","industry":"Wholesalers: Electronics and Office Equipment","ranking":"108","employee":19000,"city_lat":33.559113,"city_lon":-112.133168,"dropbox":6464},{"name":"Northwestern Mutual","url":"http://fortune.com/fortune500/northwestern-mutual-109/","city_name":"Milwaukee","city_state":"WI","industry":"Insurance: Life, Health (Mutual)","ranking":"109","employee":5187,"city_lat":43.040738,"city_lon":-87.93566,"dropbox":775},{"name":"McDonald's","url":"http://fortune.com/fortune500/mcdonalds-110/","city_name":"Oak Brook","city_state":"IL","industry":"Food Services","ranking":"110","employee":420000,"city_lat":41.7891,"city_lon":-87.940089,"dropbox":6287},{"name":"Exelon","url":"http://fortune.com/fortune500/exelon-111/","city_name":"Chicago","city_state":"IL","industry":"Utilities: Gas and Electric","ranking":"111","employee":28993,"city_lat":41.881351,"city_lon":-87.642969,"dropbox":5006},{"name":"Travelers Cos.","url":"http://fortune.com/fortune500/travelers-cos-112/","city_name":"New York","city_state":"NY","industry":"Insurance: Property and Casualty (Stock)","ranking":"112","employee":30200,"city_lat":40.710537,"city_lon":-74.016323,"dropbox":2957},{"name":"Qualcomm","url":"http://fortune.com/fortune500/qualcomm-113/","city_name":"San Diego","city_state":"CA","industry":"Network and Other Communications Equipment","ranking":"113","employee":31300,"city_lat":32.676144,"city_lon":-117.160335,"dropbox":5092},{"name":"International Paper","url":"http://fortune.com/fortune500/international-paper-114/","city_name":"Memphis","city_state":"TN","industry":"Packaging, Containers","ranking":"114","employee":58000,"city_lat":35.023091,"city_lon":-89.84916,"dropbox":21757},{"name":"Occidental Petroleum","url":"http://fortune.com/fortune500/occidental-petroleum-115/","city_name":"Houston","city_state":"TX","industry":"Mining, Crude-Oil Production","ranking":"115","employee":11700,"city_lat":29.670869,"city_lon":-95.586613,"dropbox":517},{"name":"Duke Energy","url":"http://fortune.com/fortune500/duke-energy-116/","city_name":"Charlotte","city_state":"NC","industry":"Utilities: Gas and Electric","ranking":"116","employee":28344,"city_lat":35.146685,"city_lon":-80.960421,"dropbox":3584},{"name":"Rite Aid","url":"http://fortune.com/fortune500/rite-aid-117/","city_name":"Camp Hill","city_state":"PA","industry":"Food and Drug Stores","ranking":"117","employee":69420,"dropbox":2243},{"name":"Gilead Sciences","url":"http://fortune.com/fortune500/gilead-sciences-118/","city_name":"Foster City","city_state":"CA","industry":"Pharmaceuticals","ranking":"118","employee":7000,"city_lat":37.551614,"city_lon":-122.263577,"dropbox":2723},{"name":"Baker Hughes","url":"http://fortune.com/fortune500/baker-hughes-119/","city_name":"Houston","city_state":"TX","industry":"Oil and Gas Equipment, Services","ranking":"119","employee":62000,"city_lat":29.670869,"city_lon":-95.586613,"dropbox":24090},{"name":"Emerson Electric","url":"http://fortune.com/fortune500/emerson-electric-120/","city_name":"St. Louis","city_state":"MO","industry":"Electronics, Electrical Equip.","ranking":"120","employee":115100,"dropbox":34557},{"name":"EMC","url":"http://fortune.com/fortune500/emc-121/","city_name":"Hopkinton","city_state":"MA","industry":"Computer Peripherals","ranking":"121","employee":70000,"city_lat":42.219046,"city_lon":-71.530178,"dropbox":2783},{"name":"USAA","url":"http://fortune.com/fortune500/usaa-122/","city_name":"San Antonio","city_state":"TX","industry":"Insurance: Property and Casualty (Stock)","ranking":"122","employee":27635,"city_lat":29.173345,"city_lon":-98.472272,"dropbox":10061},{"name":"Union Pacific","url":"http://fortune.com/fortune500/union-pacific-123/","city_name":"Omaha","city_state":"NE","industry":"Railroads","ranking":"123","employee":47201,"city_lat":41.29552,"city_lon":-96.100793,"dropbox":6223},{"name":"Northrop Grumman","url":"http://fortune.com/fortune500/northrop-grumman-124/","city_name":"Falls Church","city_state":"VA","industry":"Aerospace and Defense","ranking":"124","employee":64300,"city_lat":38.88559,"city_lon":-77.180231,"dropbox":2237},{"name":"Alcoa","url":"http://fortune.com/fortune500/alcoa-125/","city_name":"New York","city_state":"NY","industry":"Metals","ranking":"125","employee":59000,"city_lat":40.710537,"city_lon":-74.016323,"dropbox":16304},{"name":"Capital One Financial","url":"http://fortune.com/fortune500/capital-one-financial-126/","city_name":"McLean","city_state":"VA","industry":"Commercial Banks","ranking":"126","employee":46000,"dropbox":11901},{"name":"National Oilwell Varco","url":"http://fortune.com/fortune500/national-oilwell-varco-127/","city_name":"Houston","city_state":"TX","industry":"Oil and Gas Equipment, Services","ranking":"127","employee":59091,"city_lat":29.670869,"city_lon":-95.586613,"dropbox":16243},{"name":"US Foods","url":"http://fortune.com/fortune500/us-foods-128/","city_name":"Rosemont","city_state":"IL","industry":"Wholesalers: Food and Grocery","ranking":"128","employee":25000,"city_lat":42.015116,"city_lon":-87.897882,"dropbox":5822},{"name":"Raytheon","url":"http://fortune.com/fortune500/raytheon-129/","city_name":"Waltham","city_state":"MA","industry":"Aerospace and Defense","ranking":"129","employee":61000,"dropbox":23972},{"name":"Time Warner Cable","url":"http://fortune.com/fortune500/time-warner-cable-130/","city_name":"New York","city_state":"NY","industry":"Telecommunications","ranking":"130","employee":54615,"city_lat":40.710537,"city_lon":-74.016323,"dropbox":18234},{"name":"Arrow Electronics","url":"http://fortune.com/fortune500/arrow-electronics-131/","city_name":"Centennial","city_state":"CO","industry":"Wholesalers: Electronics and Office Equipment","ranking":"131","employee":17000,"dropbox":1921},{"name":"Aflac","url":"http://fortune.com/fortune500/aflac-132/","city_name":"Columbus","city_state":"GA","industry":"Insurance: Life, Health (stock)","ranking":"132","employee":9525,"city_lat":32.536913,"city_lon":-84.927404,"dropbox":2702},{"name":"Staples","url":"http://fortune.com/fortune500/staples-133/","city_name":"Framingham","city_state":"MA","industry":"Specialty Retailers: Other","ranking":"133","employee":61738,"city_lat":42.300665,"city_lon":-71.425486,"dropbox":5374},{"name":"Abbott Laboratories","url":"http://fortune.com/fortune500/abbott-laboratories-134/","city_name":"Abbott Park","city_state":"IL","industry":"Medical Products and Equipment","ranking":"134","employee":77000,"city_lat":42.318901,"city_lon":-87.847819,"dropbox":11251},{"name":"Community Health Systems","url":"http://fortune.com/fortune500/community-health-systems-135/","city_name":"Franklin","city_state":"TN","industry":"Health Care: Medical Facilities","ranking":"135","employee":119000,"city_lat":35.932782,"city_lon":-86.878833,"dropbox":6309},{"name":"Fluor","url":"http://fortune.com/fortune500/fluor-136/","city_name":"Irving","city_state":"TX","industry":"Engineering, Construction","ranking":"136","employee":37508,"city_lat":32.924686,"city_lon":-96.959817,"dropbox":10307},{"name":"Freeport-McMoRan","url":"http://fortune.com/fortune500/freeport-mcmoran-137/","city_name":"Phoenix","city_state":"AZ","industry":"Mining, Crude-Oil Production","ranking":"137","employee":35000,"city_lat":33.559113,"city_lon":-112.133168,"dropbox":5205},{"name":"U.S. Bancorp","url":"http://fortune.com/fortune500/u-s-bancorp-138/","city_name":"Minneapolis","city_state":"MN","industry":"Commercial Banks","ranking":"138","employee":66750,"city_lat":44.981562,"city_lon":-93.23928,"dropbox":14804},{"name":"Nucor","url":"http://fortune.com/fortune500/nucor-139/","city_name":"Charlotte","city_state":"NC","industry":"Metals","ranking":"139","employee":23600,"city_lat":35.146685,"city_lon":-80.960421,"dropbox":5651},{"name":"Kimberly-Clark","url":"http://fortune.com/fortune500/kimberly-clark-140/","city_name":"Irving","city_state":"TX","industry":"Household and Personal Products","ranking":"140","employee":43000,"city_lat":32.924686,"city_lon":-96.959817,"dropbox":8118},{"name":"Hess","url":"http://fortune.com/fortune500/hess-141/","city_name":"New York","city_state":"NY","industry":"Petroleum Refining","ranking":"141","employee":3045,"city_lat":40.710537,"city_lon":-74.016323,"dropbox":95},{"name":"Chesapeake Energy","url":"http://fortune.com/fortune500/chesapeake-energy-142/","city_name":"Oklahoma City","city_state":"OK","industry":"Mining, Crude-Oil Production","ranking":"142","employee":5500,"city_lat":35.424157,"city_lon":-97.654729,"dropbox":1921},{"name":"Xerox","url":"http://fortune.com/fortune500/xerox-143/","city_name":"Norwalk","city_state":"CT","industry":"Information Technology Services","ranking":"143","employee":147500,"city_lat":41.101382,"city_lon":-73.401119,"dropbox":8954},{"name":"ManpowerGroup","url":"http://fortune.com/fortune500/manpowergroup-144/","city_name":"Milwaukee","city_state":"WI","industry":"Temporary Help","ranking":"144","employee":26000,"city_lat":43.040738,"city_lon":-87.93566,"dropbox":6851},{"name":"Amgen","url":"http://fortune.com/fortune500/amgen-145/","city_name":"Thousand Oaks","city_state":"CA","industry":"Pharmaceuticals","ranking":"145","employee":17900,"city_lat":34.209179,"city_lon":-118.873908,"dropbox":6628},{"name":"AbbVie","url":"http://fortune.com/fortune500/abbvie-146/","city_name":"North Chicago","city_state":"IL","industry":"Pharmaceuticals","ranking":"146","employee":26000,"dropbox":40},{"name":"Danaher","url":"http://fortune.com/fortune500/danaher-147/","city_name":"Washington","city_state":"DC","industry":"Scientific,Photographic and Control Equipment","ranking":"147","employee":71000,"city_lat":38.839473,"city_lon":-77.014827,"dropbox":18776},{"name":"Whirlpool","url":"http://fortune.com/fortune500/whirlpool-148/","city_name":"Benton Harbor","city_state":"MI","industry":"Electronics, Electrical Equip.","ranking":"148","employee":100000,"city_lat":42.108594,"city_lon":-86.423417,"dropbox":6875},{"name":"PBF Energy","url":"http://fortune.com/fortune500/pbf-energy-149/","city_name":"Parsippany","city_state":"NJ","industry":"Petroleum Refining","ranking":"149","employee":1714,"city_lat":40.862106,"city_lon":-74.411663,"dropbox":61},{"name":"HollyFrontier","url":"http://fortune.com/fortune500/hollyfrontier-150/","city_name":"Dallas","city_state":"TX","industry":"Petroleum Refining","ranking":"150","employee":2686,"city_lat":33.000458,"city_lon":-96.83143,"dropbox":476},{"name":"Eli Lilly","url":"http://fortune.com/fortune500/eli-lilly-151/","city_name":"Indianapolis","city_state":"IN","industry":"Pharmaceuticals","ranking":"151","employee":39135,"city_lat":39.740599,"city_lon":-86.156944,"dropbox":3599},{"name":"Devon Energy","url":"http://fortune.com/fortune500/devon-energy-152/","city_name":"Oklahoma City","city_state":"OK","industry":"Mining, Crude-Oil Production","ranking":"152","employee":5437,"city_lat":35.424157,"city_lon":-97.654729,"dropbox":808},{"name":"Progressive","url":"http://fortune.com/fortune500/progressive-153/","city_name":"Mayfield Village","city_state":"OH","industry":"Insurance: Property and Casualty (Stock)","ranking":"153","employee":26501,"dropbox":6743},{"name":"Cummins","url":"http://fortune.com/fortune500/cummins-154/","city_name":"Columbus","city_state":"IN","industry":"Construction and Farm Machinery","ranking":"154","employee":54600,"city_lat":39.230097,"city_lon":-85.885497,"dropbox":20390},{"name":"Icahn Enterprises","url":"http://fortune.com/fortune500/icahn-enterprises-155/","city_name":"New York","city_state":"NY","industry":"Petroleum Refining","ranking":"155","employee":65577,"city_lat":40.710537,"city_lon":-74.016323,"dropbox":1461},{"name":"AutoNation","url":"http://fortune.com/fortune500/autonation-156/","city_name":"Fort Lauderdale","city_state":"FL","industry":"Automotive Retailing, Services","ranking":"156","employee":24000,"city_lat":26.117586,"city_lon":-80.250587,"dropbox":587},{"name":"Kohl's","url":"http://fortune.com/fortune500/kohls-157/","city_name":"Menomonee Falls","city_state":"WI","industry":"General Merchandisers","ranking":"157","employee":84500,"city_lat":43.160174,"city_lon":-88.112774,"dropbox":8065},{"name":"Paccar","url":"http://fortune.com/fortune500/paccar-158/","city_name":"Bellevue","city_state":"WA","industry":"Motor Vehicles and Parts","ranking":"158","employee":23300,"city_lat":47.611468,"city_lon":-122.116173,"dropbox":5288},{"name":"Dollar General","url":"http://fortune.com/fortune500/dollar-general-159/","city_name":"Goodlettsville","city_state":"TN","industry":"General Merchandisers","ranking":"159","employee":105500,"city_lat":36.341677,"city_lon":-86.721215,"dropbox":32531},{"name":"Hartford Financial Services Group","url":"http://fortune.com/fortune500/hartford-financial-services-group-160/","city_name":"Hartford","city_state":"CT","industry":"Insurance: Property and Casualty (Stock)","ranking":"160","employee":17500,"city_lat":41.78596,"city_lon":-72.675807,"dropbox":5100},{"name":"Southwest Airlines","url":"http://fortune.com/fortune500/southwest-airlines-161/","city_name":"Dallas","city_state":"TX","industry":"Airlines","ranking":"161","employee":46278,"city_lat":33.000458,"city_lon":-96.83143,"dropbox":2065},{"name":"Anadarko Petroleum","url":"http://fortune.com/fortune500/anadarko-petroleum-162/","city_name":"The Woodlands","city_state":"TX","industry":"Mining, Crude-Oil Production","ranking":"162","employee":6100,"city_lat":30.168887,"city_lon":-95.500743,"dropbox":819},{"name":"Southern","url":"http://fortune.com/fortune500/southern-163/","city_name":"Atlanta","city_state":"GA","industry":"Utilities: Gas and Electric","ranking":"163","employee":26369,"city_lat":33.937772,"city_lon":-84.271645,"dropbox":2174},{"name":"Supervalu","url":"http://fortune.com/fortune500/supervalu-164/","city_name":"Eden Prairie","city_state":"MN","industry":"Food and Drug Stores","ranking":"164","employee":35800,"city_lat":44.834217,"city_lon":-93.438934,"dropbox":1053},{"name":"Kraft Foods Group","url":"http://fortune.com/fortune500/kraft-foods-group-165/","city_name":"Northfield","city_state":"IL","industry":"Food Consumer Products","ranking":"165","employee":22100,"city_lat":42.103605,"city_lon":-87.752256,"dropbox":6059},{"name":"Goodyear Tire & Rubber","url":"http://fortune.com/fortune500/goodyear-tire-rubber-166/","city_name":"Akron","city_state":"OH","industry":"Motor Vehicles and Parts","ranking":"166","employee":67000,"city_lat":41.083496,"city_lon":-81.56744,"dropbox":22016},{"name":"EOG Resources","url":"http://fortune.com/fortune500/eog-resources-167/","city_name":"Houston","city_state":"TX","industry":"Mining, Crude-Oil Production","ranking":"167","employee":3000,"city_lat":29.670869,"city_lon":-95.586613,"dropbox":744},{"name":"CenturyLink","url":"http://fortune.com/fortune500/centurylink-168/","city_name":"Monroe","city_state":"LA","industry":"Telecommunications","ranking":"168","employee":45000,"city_lat":32.553038,"city_lon":-92.042241,"dropbox":3555},{"name":"Altria Group","url":"http://fortune.com/fortune500/altria-group-169/","city_name":"Richmond","city_state":"VA","industry":"Tobacco","ranking":"169","employee":9000,"city_lat":37.632923,"city_lon":-77.545125,"dropbox":2309},{"name":"Tenet Healthcare","url":"http://fortune.com/fortune500/tenet-healthcare-170/","city_name":"Dallas","city_state":"TX","industry":"Health Care: Medical Facilities","ranking":"170","employee":96456,"city_lat":33.000458,"city_lon":-96.83143,"dropbox":19092},{"name":"General Mills","url":"http://fortune.com/fortune500/general-mills-171/","city_name":"Minneapolis","city_state":"MN","industry":"Food Consumer Products","ranking":"171","employee":43000,"city_lat":44.981562,"city_lon":-93.23928,"dropbox":12014},{"name":"eBay","url":"http://fortune.com/fortune500/ebay-172/","city_name":"San Jose","city_state":"CA","industry":"Internet Services and Retailing","ranking":"172","employee":35550,"city_lat":37.329765,"city_lon":-121.792111,"dropbox":10382},{"name":"ConAgra Foods","url":"http://fortune.com/fortune500/conagra-foods-173/","city_name":"Omaha","city_state":"NE","industry":"Food Consumer Products","ranking":"173","employee":32800,"city_lat":41.29552,"city_lon":-96.100793,"dropbox":11263},{"name":"Lear","url":"http://fortune.com/fortune500/lear-174/","city_name":"Southfield","city_state":"MI","industry":"Motor Vehicles and Parts","ranking":"174","employee":125200,"city_lat":42.463831,"city_lon":-83.225539,"dropbox":33318},{"name":"TRW Automotive Holdings","url":"http://fortune.com/fortune500/trw-automotive-holdings-175/","city_name":"Livonia","city_state":"MI","industry":"Motor Vehicles and Parts","ranking":"175","employee":72900,"city_lat":42.395796,"city_lon":-83.377157,"dropbox":5264},{"name":"United States Steel","url":"http://fortune.com/fortune500/united-states-steel-176/","city_name":"Pittsburgh","city_state":"PA","industry":"Metals","ranking":"176","employee":35500,"dropbox":4588},{"name":"Penske Automotive Group","url":"http://fortune.com/fortune500/penske-automotive-group-177/","city_name":"Bloomfield Hills","city_state":"MI","industry":"Automotive Retailing, Services","ranking":"177","employee":22100,"dropbox":4621},{"name":"AES","url":"http://fortune.com/fortune500/aes-178/","city_name":"Arlington","city_state":"VA","industry":"Utilities: Gas and Electric","ranking":"178","employee":18500,"city_lat":38.895375,"city_lon":-77.163295,"dropbox":6557},{"name":"Colgate-Palmolive","url":"http://fortune.com/fortune500/colgate-palmolive-179/","city_name":"New York","city_state":"NY","industry":"Household and Personal Products","ranking":"179","employee":37700,"city_lat":40.710537,"city_lon":-74.016323,"dropbox":3475},{"name":"Global Partners","url":"http://fortune.com/fortune500/global-partners-180/","city_name":"Waltham","city_state":"MA","industry":"Wholesalers: Diversified","ranking":"180","employee":1154,"dropbox":96},{"name":"Thermo Fisher Scientific","url":"http://fortune.com/fortune500/thermo-fisher-scientific-181/","city_name":"Waltham","city_state":"MA","industry":"Scientific,Photographic and Control Equipment","ranking":"181","employee":51000,"dropbox":14859},{"name":"PG&E Corp.","url":"http://fortune.com/fortune500/pge-corp-182/","city_name":"San Francisco","city_state":"CA","industry":"Utilities: Gas and Electric","ranking":"182","employee":22581,"city_lat":37.718968,"city_lon":-122.409577,"dropbox":7824},{"name":"NextEra Energy","url":"http://fortune.com/fortune500/nextera-energy-183/","city_name":"Juno Beach","city_state":"FL","industry":"Utilities: Gas and Electric","ranking":"183","employee":13800,"dropbox":542},{"name":"American Electric Power","url":"http://fortune.com/fortune500/american-electric-power-184/","city_name":"Columbus","city_state":"OH","industry":"Utilities: Gas and Electric","ranking":"184","employee":18529,"city_lat":39.923024,"city_lon":-82.866432,"dropbox":1956},{"name":"Baxter International","url":"http://fortune.com/fortune500/baxter-international-185/","city_name":"Deerfield","city_state":"IL","industry":"Medical Products and Equipment","ranking":"185","employee":65500,"city_lat":42.170494,"city_lon":-87.859033,"dropbox":19835},{"name":"Centene","url":"http://fortune.com/fortune500/centene-186/","city_name":"St. Louis","city_state":"MO","industry":"Health Care: Insurance and Managed Care","ranking":"186","employee":13400,"dropbox":2400},{"name":"Starbucks","url":"http://fortune.com/fortune500/starbucks-187/","city_name":"Seattle","city_state":"WA","industry":"Food Services","ranking":"187","employee":191000,"city_lat":47.648845,"city_lon":-122.396357,"dropbox":17729},{"name":"Gap","url":"http://fortune.com/fortune500/gap-188/","city_name":"San Francisco","city_state":"CA","industry":"Specialty Retailers: Apparel","ranking":"188","employee":141000,"city_lat":37.718968,"city_lon":-122.409577,"dropbox":11234},{"name":"Bank of New York Mellon Corp.","url":"http://fortune.com/fortune500/bank-of-new-york-mellon-corp-189/","city_name":"New York","city_state":"NY","industry":"Commercial Banks","ranking":"189","employee":50300,"city_lat":40.710537,"city_lon":-74.016323,"dropbox":18128},{"name":"Micron Technology","url":"http://fortune.com/fortune500/micron-technology-190/","city_name":"Boise","city_state":"ID","industry":"Semiconductors and Other Electronic Components","ranking":"190","employee":30400,"city_lat":43.602311,"city_lon":-116.164924,"dropbox":9831},{"name":"Jabil Circuit","url":"http://fortune.com/fortune500/jabil-circuit-191/","city_name":"St. Petersburg","city_state":"FL","industry":"Semiconductors and Other Electronic Components","ranking":"191","employee":142000,"dropbox":53249},{"name":"PNC Financial Services Group","url":"http://fortune.com/fortune500/pnc-financial-services-group-192/","city_name":"Pittsburgh","city_state":"PA","industry":"Commercial Banks","ranking":"192","employee":51666,"dropbox":6151},{"name":"Kinder Morgan","url":"http://fortune.com/fortune500/kinder-morgan-193/","city_name":"Houston","city_state":"TX","industry":"Pipelines","ranking":"193","employee":11535,"city_lat":29.670869,"city_lon":-95.586613,"dropbox":563},{"name":"Office Depot","url":"http://fortune.com/fortune500/office-depot-194/","city_name":"Boca Raton","city_state":"FL","industry":"Specialty Retailers: Other","ranking":"194","employee":56000,"city_lat":26.390693,"city_lon":-80.216087,"dropbox":2062},{"name":"Bristol-Myers Squibb","url":"http://fortune.com/fortune500/bristol-myers-squibb-195/","city_name":"New York","city_state":"NY","industry":"Pharmaceuticals","ranking":"195","employee":25000,"city_lat":40.710537,"city_lon":-74.016323,"dropbox":8298},{"name":"NRG Energy","url":"http://fortune.com/fortune500/nrg-energy-196/","city_name":"Princeton","city_state":"NJ","industry":"Energy","ranking":"196","employee":9806,"city_lat":40.353545,"city_lon":-74.659378,"dropbox":1896},{"name":"Monsanto","url":"http://fortune.com/fortune500/monsanto-197/","city_name":"St. Louis","city_state":"MO","industry":"Chemicals","ranking":"197","employee":24700,"dropbox":2785},{"name":"PPG Industries","url":"http://fortune.com/fortune500/ppg-industries-198/","city_name":"Pittsburgh","city_state":"PA","industry":"Chemicals","ranking":"198","employee":44400,"dropbox":286},{"name":"Genuine Parts","url":"http://fortune.com/fortune500/genuine-parts-199/","city_name":"Atlanta","city_state":"GA","industry":"Wholesalers: Diversified","ranking":"199","employee":39000,"city_lat":33.937772,"city_lon":-84.271645,"dropbox":13872},{"name":"Omnicom Group","url":"http://fortune.com/fortune500/omnicom-group-200/","city_name":"New York","city_state":"NY","industry":"Advertising, marketing","ranking":"200","employee":74000,"city_lat":40.710537,"city_lon":-74.016323,"dropbox":8056},{"name":"Illinois Tool Works","url":"http://fortune.com/fortune500/illinois-tool-works-201/","city_name":"Glenview","city_state":"IL","industry":"Industrial Machinery","ranking":"201","employee":49000,"city_lat":42.075785,"city_lon":-87.822299,"dropbox":10634},{"name":"Murphy USA","url":"http://fortune.com/fortune500/murphy-usa-202/","city_name":"El Dorado","city_state":"AR","industry":"Specialty Retailers: Other","ranking":"202","employee":5725,"city_lat":33.20735,"city_lon":-92.662856,"dropbox":202},{"name":"Land O'Lakes","url":"http://fortune.com/fortune500/land-olakes-203/","city_name":"Arden Hills","city_state":"MN","industry":"Food Consumer Products","ranking":"203","employee":10000,"dropbox":2358},{"name":"Western Refining","url":"http://fortune.com/fortune500/western-refining-204/","city_name":"El Paso","city_state":"TX","industry":"Petroleum Refining","ranking":"204","employee":5700,"city_lat":31.767655,"city_lon":-106.30159,"dropbox":952},{"name":"Western Digital","url":"http://fortune.com/fortune500/western-digital-205/","city_name":"Irvine","city_state":"CA","industry":"Computer Peripherals","ranking":"205","employee":84072,"city_lat":33.707495,"city_lon":-117.765533,"dropbox":683},{"name":"FirstEnergy","url":"http://fortune.com/fortune500/firstenergy-206/","city_name":"Akron","city_state":"OH","industry":"Utilities: Gas and Electric","ranking":"206","employee":15557,"city_lat":41.083496,"city_lon":-81.56744,"dropbox":5925},{"name":"Aramark","url":"http://fortune.com/fortune500/aramark-207/","city_name":"Philadelphia","city_state":"PA","industry":"Diversified Outsourcing Services","ranking":"207","employee":216000,"city_lat":40.089738,"city_lon":-74.978052,"dropbox":42461},{"name":"DISH Network","url":"http://fortune.com/fortune500/dish-network-208/","city_name":"Englewood","city_state":"CO","industry":"Telecommunications","ranking":"208","employee":19000,"city_lat":39.58051,"city_lon":-104.901115,"dropbox":2497},{"name":"Las Vegas Sands","url":"http://fortune.com/fortune500/las-vegas-sands-209/","city_name":"Las Vegas","city_state":"NV","industry":"Hotels, Casinos, Resorts","ranking":"209","employee":48500,"city_lat":36.209234,"city_lon":-115.294123,"dropbox":4722},{"name":"Kellogg","url":"http://fortune.com/fortune500/kellogg-210/","city_name":"Battle Creek","city_state":"MI","industry":"Food Consumer Products","ranking":"210","employee":29790,"city_lat":42.332218,"city_lon":-85.181106,"dropbox":4787},{"name":"Loews","url":"http://fortune.com/fortune500/loews-211/","city_name":"New York","city_state":"NY","industry":"Insurance: Property and Casualty (Stock)","ranking":"211","employee":17510,"city_lat":40.710537,"city_lon":-74.016323,"dropbox":773},{"name":"CBS","url":"http://fortune.com/fortune500/cbs-212/","city_name":"New York","city_state":"NY","industry":"Entertainment","ranking":"212","employee":20125,"city_lat":40.710537,"city_lon":-74.016323,"dropbox":7536},{"name":"Ecolab","url":"http://fortune.com/fortune500/ecolab-213/","city_name":"St. Paul","city_state":"MN","industry":"Chemicals","ranking":"213","employee":47430,"dropbox":1033},{"name":"Whole Foods Market","url":"http://fortune.com/fortune500/whole-foods-market-214/","city_name":"Austin","city_state":"TX","industry":"Food and Drug Stores","ranking":"214","employee":72650,"city_lat":30.403614,"city_lon":-97.752602,"dropbox":1012},{"name":"Chubb","url":"http://fortune.com/fortune500/chubb-215/","city_name":"Warren","city_state":"NJ","industry":"Insurance: Property and Casualty (Stock)","ranking":"215","employee":10200,"city_lat":40.631787,"city_lon":-74.510456,"dropbox":619},{"name":"Health Net","url":"http://fortune.com/fortune500/health-net-216/","city_name":"Woodland Hills","city_state":"CA","industry":"Health Care: Insurance and Managed Care","ranking":"216","employee":7968,"city_lat":34.176689,"city_lon":-118.615891,"dropbox":2832},{"name":"Waste Management","url":"http://fortune.com/fortune500/waste-management-217/","city_name":"Houston","city_state":"TX","industry":"Waste Management","ranking":"217","employee":39800,"city_lat":29.670869,"city_lon":-95.586613,"dropbox":5787},{"name":"Apache","url":"http://fortune.com/fortune500/apache-218/","city_name":"Houston","city_state":"TX","industry":"Mining, Crude-Oil Production","ranking":"218","employee":4950,"city_lat":29.670869,"city_lon":-95.586613,"dropbox":0},{"name":"Textron","url":"http://fortune.com/fortune500/textron-219/","city_name":"Providence","city_state":"RI","industry":"Aerospace and Defense","ranking":"219","employee":34000,"city_lat":41.838294,"city_lon":-71.437684,"dropbox":1015},{"name":"Synnex","url":"http://fortune.com/fortune500/synnex-220/","city_name":"Fremont","city_state":"CA","industry":"Wholesalers: Electronics and Office Equipment","ranking":"220","employee":64000,"city_lat":37.573458,"city_lon":-122.046925,"dropbox":780},{"name":"Marriott International","url":"http://fortune.com/fortune500/marriott-international-221/","city_name":"Bethesda","city_state":"MD","industry":"Hotels, Casinos, Resorts","ranking":"221","employee":123500,"city_lat":38.958485,"city_lon":-77.11528,"dropbox":34216},{"name":"Viacom","url":"http://fortune.com/fortune500/viacom-222/","city_name":"New York","city_state":"NY","industry":"Entertainment","ranking":"222","employee":10140,"city_lat":40.710537,"city_lon":-74.016323,"dropbox":3007},{"name":"Lincoln National","url":"http://fortune.com/fortune500/lincoln-national-223/","city_name":"Radnor","city_state":"PA","industry":"Insurance: Life, Health (stock)","ranking":"223","employee":9627,"city_lat":40.059554,"city_lon":-75.40416,"dropbox":181},{"name":"Nordstrom","url":"http://fortune.com/fortune500/nordstrom-224/","city_name":"Seattle","city_state":"WA","industry":"General Merchandisers","ranking":"224","employee":67000,"city_lat":47.648845,"city_lon":-122.396357,"dropbox":21994},{"name":"C.H. Robinson Worldwide","url":"http://fortune.com/fortune500/c-h-robinson-worldwide-225/","city_name":"Eden Prairie","city_state":"MN","industry":"Transportation and Logistics","ranking":"225","employee":11521,"city_lat":44.834217,"city_lon":-93.438934,"dropbox":493},{"name":"Edison International","url":"http://fortune.com/fortune500/edison-international-226/","city_name":"Rosemead","city_state":"CA","industry":"Utilities: Gas and Electric","ranking":"226","employee":13690,"city_lat":34.065767,"city_lon":-118.08529,"dropbox":3530},{"name":"Marathon Oil","url":"http://fortune.com/fortune500/marathon-oil-227/","city_name":"Houston","city_state":"TX","industry":"Mining, Crude-Oil Production","ranking":"227","employee":3330,"city_lat":29.670869,"city_lon":-95.586613,"dropbox":683},{"name":"Yum Brands","url":"http://fortune.com/fortune500/yum-brands-228/","city_name":"Louisville","city_state":"KY","industry":"Food Services","ranking":"228","employee":303405,"city_lat":38.268273,"city_lon":-85.484461,"dropbox":106127},{"name":"Computer Sciences","url":"http://fortune.com/fortune500/computer-sciences-229/","city_name":"Falls Church","city_state":"VA","industry":"Information Technology Services","ranking":"229","employee":79000,"city_lat":38.88559,"city_lon":-77.180231,"dropbox":19057},{"name":"Parker-Hannifin","url":"http://fortune.com/fortune500/parker-hannifin-230/","city_name":"Cleveland","city_state":"OH","industry":"Industrial Machinery","ranking":"230","employee":57450,"city_lat":41.434177,"city_lon":-81.804433,"dropbox":11256},{"name":"DaVita HealthCare Partners","url":"http://fortune.com/fortune500/davita-healthcare-partners-231/","city_name":"Denver","city_state":"CO","industry":"Health Care: Medical Facilities","ranking":"231","employee":57900,"city_lat":39.778264,"city_lon":-104.75565,"dropbox":3795},{"name":"CarMax","url":"http://fortune.com/fortune500/carmax-232/","city_name":"Richmond","city_state":"VA","industry":"Automotive Retailing, Services","ranking":"232","employee":20171,"city_lat":37.632923,"city_lon":-77.545125,"dropbox":3631},{"name":"Texas Instruments","url":"http://fortune.com/fortune500/texas-instruments-233/","city_name":"Dallas","city_state":"TX","industry":"Semiconductors and Other Electronic Components","ranking":"233","employee":31003,"city_lat":33.000458,"city_lon":-96.83143,"dropbox":4423},{"name":"WellCare Health Plans","url":"http://fortune.com/fortune500/wellcare-health-plans-234/","city_name":"Tampa","city_state":"FL","industry":"Health Care: Insurance and Managed Care","ranking":"234","employee":6700,"city_lat":28.114698,"city_lon":-82.367751,"dropbox":839},{"name":"Marsh & McLennan","url":"http://fortune.com/fortune500/marsh-mclennan-235/","city_name":"New York","city_state":"NY","industry":"Diversified Financials","ranking":"235","employee":57000,"city_lat":40.710537,"city_lon":-74.016323,"dropbox":4981},{"name":"Consolidated Edison","url":"http://fortune.com/fortune500/consolidated-edison-236/","city_name":"New York","city_state":"NY","industry":"Utilities: Gas and Electric","ranking":"236","employee":14601,"city_lat":40.710537,"city_lon":-74.016323,"dropbox":3040},{"name":"Oneok","url":"http://fortune.com/fortune500/oneok-237/","city_name":"Tulsa","city_state":"OK","industry":"Pipelines","ranking":"237","employee":2269,"city_lat":36.109293,"city_lon":-95.85061,"dropbox":852},{"name":"Visa","url":"http://fortune.com/fortune500/visa-238/","city_name":"Foster City","city_state":"CA","industry":"Financial Data Services","ranking":"238","employee":9500,"city_lat":37.551614,"city_lon":-122.263577,"dropbox":430},{"name":"Jacobs Engineering Group","url":"http://fortune.com/fortune500/jacobs-engineering-group-239/","city_name":"Pasadena","city_state":"CA","industry":"Engineering, Construction","ranking":"239","employee":59900,"city_lat":34.150997,"city_lon":-118.088905,"dropbox":16595},{"name":"CSX","url":"http://fortune.com/fortune500/csx-240/","city_name":"Jacksonville","city_state":"FL","industry":"Railroads","ranking":"240","employee":31511,"city_lat":30.095578,"city_lon":-81.621701,"dropbox":7000},{"name":"Entergy","url":"http://fortune.com/fortune500/entergy-241/","city_name":"New Orleans","city_state":"LA","industry":"Utilities: Gas and Electric","ranking":"241","employee":13393,"city_lat":29.916811,"city_lon":-89.996033,"dropbox":3730},{"name":"Facebook","url":"http://fortune.com/fortune500/facebook-242/","city_name":"Menlo Park","city_state":"CA","industry":"Internet Services and Retailing","ranking":"242","employee":9199,"dropbox":3131},{"name":"Dominion Resources","url":"http://fortune.com/fortune500/dominion-resources-243/","city_name":"Richmond","city_state":"VA","industry":"Utilities: Gas and Electric","ranking":"243","employee":14400,"city_lat":37.632923,"city_lon":-77.545125,"dropbox":4463},{"name":"Leucadia National","url":"http://fortune.com/fortune500/leucadia-national-244/","city_name":"New York","city_state":"NY","industry":"Food Production","ranking":"244","employee":13082,"city_lat":40.710537,"city_lon":-74.016323,"dropbox":3530},{"name":"Toys 'R' Us","url":"http://fortune.com/fortune500/toys-r-us-245/","city_name":"Wayne","city_state":"NJ","industry":"Specialty Retailers: Other","ranking":"245","employee":66000,"city_lat":40.947112,"city_lon":-74.246565,"dropbox":6329},{"name":"DTE Energy","url":"http://fortune.com/fortune500/dte-energy-246/","city_name":"Detroit","city_state":"MI","industry":"Utilities: Gas and Electric","ranking":"246","employee":10000,"city_lat":42.220718,"city_lon":-83.377081,"dropbox":2879},{"name":"Ameriprise Financial","url":"http://fortune.com/fortune500/ameriprise-financial-247/","city_name":"Minneapolis","city_state":"MN","industry":"Diversified Financials","ranking":"247","employee":12209,"city_lat":44.981562,"city_lon":-93.23928,"dropbox":4027},{"name":"VF","url":"http://fortune.com/fortune500/vf-248/","city_name":"Greensboro","city_state":"NC","industry":"Apparel","ranking":"248","employee":59697,"city_lat":36.103164,"city_lon":-79.879365,"dropbox":16019},{"name":"Praxair","url":"http://fortune.com/fortune500/praxair-249/","city_name":"Danbury","city_state":"CT","industry":"Chemicals","ranking":"249","employee":27780,"city_lat":41.423983,"city_lon":-73.471587,"dropbox":9690},{"name":"J.C. Penney","url":"http://fortune.com/fortune500/j-c-penney-250/","city_name":"Plano","city_state":"TX","industry":"General Merchandisers","ranking":"250","employee":114000,"city_lat":33.029866,"city_lon":-96.788903,"dropbox":8942},{"name":"Automatic Data Processing","url":"http://fortune.com/fortune500/automatic-data-processing-251/","city_name":"Roseland","city_state":"NJ","industry":"Diversified Outsourcing Services","ranking":"251","employee":61000,"city_lat":40.82034,"city_lon":-74.304688,"dropbox":9967},{"name":"L-3 Communications","url":"http://fortune.com/fortune500/l-3-communications-252/","city_name":"New York","city_state":"NY","industry":"Aerospace and Defense","ranking":"252","employee":45000,"city_lat":40.710537,"city_lon":-74.016323,"dropbox":2310},{"name":"CDW","url":"http://fortune.com/fortune500/cdw-253/","city_name":"Vernon Hills","city_state":"IL","industry":"Information Technology Services","ranking":"253","employee":7211,"city_lat":42.228753,"city_lon":-87.971852,"dropbox":2748},{"name":"Guardian Life Ins. Co. of America","url":"http://fortune.com/fortune500/guardian-life-ins-co-of-america-254/","city_name":"New York","city_state":"NY","industry":"Insurance: Life, Health (Mutual)","ranking":"254","employee":5000,"city_lat":40.710537,"city_lon":-74.016323,"dropbox":1209},{"name":"Xcel Energy","url":"http://fortune.com/fortune500/xcel-energy-255/","city_name":"Minneapolis","city_state":"MN","industry":"Utilities: Gas and Electric","ranking":"255","employee":11640,"city_lat":44.981562,"city_lon":-93.23928,"dropbox":3120},{"name":"Norfolk Southern","url":"http://fortune.com/fortune500/norfolk-southern-256/","city_name":"Norfolk","city_state":"VA","industry":"Railroads","ranking":"256","employee":29482,"city_lat":36.82942,"city_lon":-76.270125,"dropbox":7758},{"name":"PPL","url":"http://fortune.com/fortune500/ppl-257/","city_name":"Allentown","city_state":"PA","industry":"Utilities: Gas and Electric","ranking":"257","employee":17391,"city_lat":40.601849,"city_lon":-75.522499,"dropbox":5932},{"name":"R.R. Donnelley & Sons","url":"http://fortune.com/fortune500/r-r-donnelley-sons-258/","city_name":"Chicago","city_state":"IL","industry":"Publishing, Printing","ranking":"258","employee":68000,"city_lat":41.881351,"city_lon":-87.642969,"dropbox":18097},{"name":"Huntsman","url":"http://fortune.com/fortune500/huntsman-259/","city_name":"Salt Lake City","city_state":"UT","industry":"Chemicals","ranking":"259","employee":16000,"city_lat":40.785697,"city_lon":-111.929054,"dropbox":3376},{"name":"Bed Bath & Beyond","url":"http://fortune.com/fortune500/bed-bath-beyond-260/","city_name":"Union","city_state":"NJ","industry":"Specialty Retailers: Other","ranking":"260","employee":58000,"city_lat":40.695184,"city_lon":-74.267653,"dropbox":1588},{"name":"Stanley Black & Decker","url":"http://fortune.com/fortune500/stanley-black-decker-261/","city_name":"New Britain","city_state":"CT","industry":"Home Equipment, Furnishings","ranking":"261","employee":50400,"city_lat":41.686667,"city_lon":-72.790835,"dropbox":10738},{"name":"L Brands","url":"http://fortune.com/fortune500/l-brands-262/","city_name":"Columbus","city_state":"OH","industry":"Specialty Retailers: Apparel","ranking":"262","employee":50150,"city_lat":39.923024,"city_lon":-82.866432,"dropbox":8492},{"name":"Liberty Interactive","url":"http://fortune.com/fortune500/liberty-interactive-263/","city_name":"Englewood","city_state":"CO","industry":"Internet Services and Retailing","ranking":"263","employee":20078,"city_lat":39.58051,"city_lon":-104.901115,"dropbox":6031},{"name":"Farmers Insurance Exchange","url":"http://fortune.com/fortune500/farmers-insurance-exchange-264/","city_name":"Woodland Hills","city_state":"CA","industry":"Insurance: Property and Casualty (Mutual)","ranking":"264","employee":13530,"city_lat":34.176689,"city_lon":-118.615891,"dropbox":2062},{"name":"First Data","url":"http://fortune.com/fortune500/first-data-265/","city_name":"Atlanta","city_state":"GA","industry":"Financial Data Services","ranking":"265","employee":22655,"city_lat":33.937772,"city_lon":-84.271645,"dropbox":5108},{"name":"Sherwin-Williams","url":"http://fortune.com/fortune500/sherwin-williams-266/","city_name":"Cleveland","city_state":"OH","industry":"Chemicals","ranking":"266","employee":39674,"city_lat":41.434177,"city_lon":-81.804433,"dropbox":14935},{"name":"BlackRock","url":"http://fortune.com/fortune500/blackrock-267/","city_name":"New York","city_state":"NY","industry":"Securities","ranking":"267","employee":12200,"city_lat":40.710537,"city_lon":-74.016323,"dropbox":377},{"name":"Voya Financial","url":"http://fortune.com/fortune500/voya-financial-268/","city_name":"New York","city_state":"NY","industry":"Insurance: Life, Health (stock)","ranking":"268","employee":6500,"city_lat":40.710537,"city_lon":-74.016323,"dropbox":2519},{"name":"Ross Stores","url":"http://fortune.com/fortune500/ross-stores-269/","city_name":"Dublin","city_state":"CA","industry":"Specialty Retailers: Apparel","ranking":"269","employee":71400,"city_lat":37.716597,"city_lon":-121.922589,"dropbox":15365},{"name":"Sempra Energy","url":"http://fortune.com/fortune500/sempra-energy-270/","city_name":"San Diego","city_state":"CA","industry":"Utilities: Gas and Electric","ranking":"270","employee":17046,"city_lat":32.676144,"city_lon":-117.160335,"dropbox":6708},{"name":"Estee Lauder","url":"http://fortune.com/fortune500/estee-lauder-271/","city_name":"New York","city_state":"NY","industry":"Household and Personal Products","ranking":"271","employee":42400,"city_lat":40.710537,"city_lon":-74.016323,"dropbox":12360},{"name":"H.J. Heinz","url":"http://fortune.com/fortune500/h-j-heinz-272/","city_name":"Pittsburgh","city_state":"PA","industry":"Food Consumer Products","ranking":"272","employee":24500,"dropbox":4618},{"name":"Reinsurance Group of America","url":"http://fortune.com/fortune500/reinsurance-group-of-america-273/","city_name":"Chesterfield","city_state":"MO","industry":"Insurance: Life, Health (stock)","ranking":"273","employee":2070,"city_lat":38.631832,"city_lon":-90.614185,"dropbox":720},{"name":"Public Service Enterprise Group","url":"http://fortune.com/fortune500/public-service-enterprise-group-274/","city_name":"Newark","city_state":"NJ","industry":"Utilities: Gas and Electric","ranking":"274","employee":12689,"city_lat":40.708246,"city_lon":-74.189105,"dropbox":629},{"name":"Cameron International","url":"http://fortune.com/fortune500/cameron-international-275/","city_name":"Houston","city_state":"TX","industry":"Oil and Gas Equipment, Services","ranking":"275","employee":28000,"city_lat":29.670869,"city_lon":-95.586613,"dropbox":8739},{"name":"Navistar International","url":"http://fortune.com/fortune500/navistar-international-276/","city_name":"Lisle","city_state":"IL","industry":"Motor Vehicles and Parts","ranking":"276","employee":14800,"city_lat":41.786174,"city_lon":-88.0879,"dropbox":483},{"name":"CST Brands","url":"http://fortune.com/fortune500/cst-brands-277/","city_name":"San Antonio","city_state":"TX","industry":"Specialty Retailers: Other","ranking":"277","employee":11099,"city_lat":29.173345,"city_lon":-98.472272,"dropbox":1524},{"name":"State Street Corp.","url":"http://fortune.com/fortune500/state-street-corp-278/","city_name":"Boston","city_state":"MA","industry":"Commercial Banks","ranking":"278","employee":29970,"city_lat":42.347088,"city_lon":-71.102689,"dropbox":9270},{"name":"Unum Group","url":"http://fortune.com/fortune500/unum-group-279/","city_name":"Chattanooga","city_state":"TN","industry":"Insurance: Life, Health (stock)","ranking":"279","employee":9500,"city_lat":35.024986,"city_lon":-85.14594,"dropbox":1413},{"name":"Hilton Worldwide Holdings","url":"http://fortune.com/fortune500/hilton-worldwide-holdings-280/","city_name":"McLean","city_state":"VA","industry":"Hotels, Casinos, Resorts","ranking":"280","employee":157000,"dropbox":12927},{"name":"Family Dollar Stores","url":"http://fortune.com/fortune500/family-dollar-stores-281/","city_name":"Matthews","city_state":"NC","industry":"General Merchandisers","ranking":"281","employee":47500,"dropbox":4339},{"name":"Principal Financial","url":"http://fortune.com/fortune500/principal-financial-282/","city_name":"Des Moines","city_state":"IA","industry":"Insurance: Life, Health (stock)","ranking":"282","employee":14873,"city_lat":41.547628,"city_lon":-93.661846,"dropbox":1416},{"name":"Reliance Steel & Aluminum","url":"http://fortune.com/fortune500/reliance-steel-aluminum-283/","city_name":"Los Angeles","city_state":"CA","industry":"Metals","ranking":"283","employee":14900,"city_lat":34.111245,"city_lon":-118.450155,"dropbox":5784},{"name":"Air Products & Chemicals","url":"http://fortune.com/fortune500/air-products-chemicals-284/","city_name":"Allentown","city_state":"PA","industry":"Chemicals","ranking":"284","employee":21050,"city_lat":40.601849,"city_lon":-75.522499,"dropbox":5496},{"name":"Assurant","url":"http://fortune.com/fortune500/assurant-285/","city_name":"New York","city_state":"NY","industry":"Insurance: Property and Casualty (Stock)","ranking":"285","employee":17379,"city_lat":40.710537,"city_lon":-74.016323,"dropbox":3837},{"name":"Peter Kiewit Sons'","url":"http://fortune.com/fortune500/peter-kiewit-sons-286/","city_name":"Omaha","city_state":"NE","industry":"Engineering, Construction","ranking":"286","employee":25700,"city_lat":41.29552,"city_lon":-96.100793,"dropbox":3288},{"name":"Henry Schein","url":"http://fortune.com/fortune500/henry-schein-287/","city_name":"Melville","city_state":"NY","industry":"Wholesalers: Health Care","ranking":"287","employee":17500,"city_lat":40.794606,"city_lon":-73.402963,"dropbox":682},{"name":"Cognizant Technology Solutions","url":"http://fortune.com/fortune500/cognizant-technology-solutions-288/","city_name":"Teaneck","city_state":"NJ","industry":"Information Technology Services","ranking":"288","employee":211500,"city_lat":40.89148,"city_lon":-74.011928,"dropbox":581},{"name":"MGM Resorts International","url":"http://fortune.com/fortune500/mgm-resorts-international-289/","city_name":"Las Vegas","city_state":"NV","industry":"Hotels, Casinos, Resorts","ranking":"289","employee":60100,"city_lat":36.209234,"city_lon":-115.294123,"dropbox":1916},{"name":"W.W. Grainger","url":"http://fortune.com/fortune500/w-w-grainger-290/","city_name":"Lake Forest","city_state":"IL","industry":"Wholesalers: Diversified","ranking":"290","employee":22950,"city_lat":42.237398,"city_lon":-87.848154,"dropbox":8084},{"name":"Group 1 Automotive","url":"http://fortune.com/fortune500/group-1-automotive-291/","city_name":"Houston","city_state":"TX","industry":"Automotive Retailing, Services","ranking":"291","employee":11978,"city_lat":29.670869,"city_lon":-95.586613,"dropbox":2163},{"name":"BB&T Corp.","url":"http://fortune.com/fortune500/bbt-corp-292/","city_name":"Winston-Salem","city_state":"NC","industry":"Commercial Banks","ranking":"292","employee":33400,"dropbox":1852},{"name":"Rock-Tenn","url":"http://fortune.com/fortune500/rock-tenn-293/","city_name":"Norcross","city_state":"GA","industry":"Packaging, Containers","ranking":"293","employee":26600,"city_lat":33.905964,"city_lon":-84.183953,"dropbox":3301},{"name":"Advance Auto Parts","url":"http://fortune.com/fortune500/advance-auto-parts-294/","city_name":"Roanoke","city_state":"VA","industry":"Specialty Retailers: Other","ranking":"294","employee":57300,"city_lat":37.293655,"city_lon":-79.990248,"dropbox":12200},{"name":"Ally Financial","url":"http://fortune.com/fortune500/ally-financial-295/","city_name":"Detroit","city_state":"MI","industry":"Commercial Banks","ranking":"295","employee":6900,"city_lat":42.220718,"city_lon":-83.377081,"dropbox":2590},{"name":"AGCO","url":"http://fortune.com/fortune500/agco-296/","city_name":"Duluth","city_state":"GA","industry":"Construction and Farm Machinery","ranking":"296","employee":20828,"city_lat":33.98619,"city_lon":-84.157936,"dropbox":1326},{"name":"Corning","url":"http://fortune.com/fortune500/corning-297/","city_name":"Corning","city_state":"NY","industry":"Network and Other Communications Equipment","ranking":"297","employee":34600,"city_lat":42.138331,"city_lon":-77.047546,"dropbox":6424},{"name":"Biogen","url":"http://fortune.com/fortune500/biogen-298/","city_name":"Cambridge","city_state":"MA","industry":"Pharmaceuticals","ranking":"298","employee":7550,"city_lat":42.364005,"city_lon":-71.141879,"dropbox":2354},{"name":"NGL Energy Partners","url":"http://fortune.com/fortune500/ngl-energy-partners-299/","city_name":"Tulsa","city_state":"OK","industry":"Wholesalers: Diversified","ranking":"299","employee":2500,"city_lat":36.109293,"city_lon":-95.85061,"dropbox":95},{"name":"Stryker","url":"http://fortune.com/fortune500/stryker-300/","city_name":"Kalamazoo","city_state":"MI","industry":"Medical Products and Equipment","ranking":"300","employee":26000,"city_lat":42.280947,"city_lon":-85.686333,"dropbox":7228},{"name":"Molina Healthcare","url":"http://fortune.com/fortune500/molina-healthcare-301/","city_name":"Long Beach","city_state":"CA","industry":"Health Care: Insurance and Managed Care","ranking":"301","employee":10500,"city_lat":33.744415,"city_lon":-118.239257,"dropbox":2348},{"name":"Precision Castparts","url":"http://fortune.com/fortune500/precision-castparts-302/","city_name":"Portland","city_state":"OR","industry":"Aerospace and Defense","ranking":"302","employee":29085,"city_lat":45.476207,"city_lon":-122.559607,"dropbox":914},{"name":"Discover Financial Services","url":"http://fortune.com/fortune500/discover-financial-services-303/","city_name":"Riverwoods","city_state":"IL","industry":"Commercial Banks","ranking":"303","employee":14676,"dropbox":2358},{"name":"Genworth Financial","url":"http://fortune.com/fortune500/genworth-financial-304/","city_name":"Richmond","city_state":"VA","industry":"Insurance: Life, Health (stock)","ranking":"304","employee":5300,"city_lat":37.632923,"city_lon":-77.545125,"dropbox":1125},{"name":"Eastman Chemical","url":"http://fortune.com/fortune500/eastman-chemical-305/","city_name":"Kingsport","city_state":"TN","industry":"Chemicals","ranking":"305","employee":15000,"city_lat":36.520834,"city_lon":-82.516835,"dropbox":2419},{"name":"Dean Foods","url":"http://fortune.com/fortune500/dean-foods-306/","city_name":"Dallas","city_state":"TX","industry":"Food Consumer Products","ranking":"306","employee":17246,"city_lat":33.000458,"city_lon":-96.83143,"dropbox":1151},{"name":"AutoZone","url":"http://fortune.com/fortune500/autozone-307/","city_name":"Memphis","city_state":"TN","industry":"Specialty Retailers: Other","ranking":"307","employee":59660,"city_lat":35.023091,"city_lon":-89.84916,"dropbox":12867},{"name":"MasterCard","url":"http://fortune.com/fortune500/mastercard-308/","city_name":"Purchase","city_state":"NY","industry":"Financial Data Services","ranking":"308","employee":10300,"city_lat":41.038396,"city_lon":-73.715629,"dropbox":1421},{"name":"Owens & Minor","url":"http://fortune.com/fortune500/owens-minor-309/","city_name":"Mechanicsville","city_state":"VA","industry":"Wholesalers: Health Care","ranking":"309","employee":7800,"city_lat":37.628146,"city_lon":-77.339464,"dropbox":336},{"name":"Hormel Foods","url":"http://fortune.com/fortune500/hormel-foods-310/","city_name":"Austin","city_state":"MN","industry":"Food Consumer Products","ranking":"310","employee":20400,"city_lat":43.669538,"city_lon":-92.978374,"dropbox":482},{"name":"GameStop","url":"http://fortune.com/fortune500/gamestop-311/","city_name":"Grapevine","city_state":"TX","industry":"Specialty Retailers: Other","ranking":"311","employee":36000,"city_lat":32.956456,"city_lon":-97.148066,"dropbox":4139},{"name":"Autoliv","url":"http://fortune.com/fortune500/autoliv-312/","city_name":"Auburn Hills","city_state":"MI","industry":"Motor Vehicles and Parts","ranking":"312","employee":55400,"city_lat":42.658345,"city_lon":-83.237489,"dropbox":4000},{"name":"CenterPoint Energy","url":"http://fortune.com/fortune500/centerpoint-energy-313/","city_name":"Houston","city_state":"TX","industry":"Utilities: Gas and Electric","ranking":"313","employee":8540,"city_lat":29.670869,"city_lon":-95.586613,"dropbox":743},{"name":"Fidelity National Financial","url":"http://fortune.com/fortune500/fidelity-national-financial-314/","city_name":"Jacksonville","city_state":"FL","industry":"Insurance: Property and Casualty (Stock)","ranking":"314","employee":56883,"city_lat":30.095578,"city_lon":-81.621701,"dropbox":16000},{"name":"Sonic Automotive","url":"http://fortune.com/fortune500/sonic-automotive-315/","city_name":"Charlotte","city_state":"NC","industry":"Automotive Retailing, Services","ranking":"315","employee":9300,"city_lat":35.146685,"city_lon":-80.960421,"dropbox":2233},{"name":"HD Supply Holdings","url":"http://fortune.com/fortune500/hd-supply-holdings-316/","city_name":"Atlanta","city_state":"GA","industry":"Wholesalers: Diversified","ranking":"316","employee":15000,"city_lat":33.937772,"city_lon":-84.271645,"dropbox":1104},{"name":"Charter Communications","url":"http://fortune.com/fortune500/charter-communications-317/","city_name":"Stamford","city_state":"CT","industry":"Telecommunications","ranking":"317","employee":23200,"city_lat":41.094206,"city_lon":-73.520297,"dropbox":4455},{"name":"Crown Holdings","url":"http://fortune.com/fortune500/crown-holdings-318/","city_name":"Philadelphia","city_state":"PA","industry":"Packaging, Containers","ranking":"318","employee":23000,"city_lat":40.089738,"city_lon":-74.978052,"dropbox":6578},{"name":"Applied Materials","url":"http://fortune.com/fortune500/applied-materials-319/","city_name":"Santa Clara","city_state":"CA","industry":"Semiconductors and Other Electronic Components","ranking":"319","employee":14475,"city_lat":37.394673,"city_lon":-121.95394,"dropbox":236},{"name":"Mosaic","url":"http://fortune.com/fortune500/mosaic-320/","city_name":"Plymouth","city_state":"MN","industry":"Chemicals","ranking":"320","employee":9100,"city_lat":44.998593,"city_lon":-93.494695,"dropbox":27},{"name":"CBRE Group","url":"http://fortune.com/fortune500/cbre-group-321/","city_name":"Los Angeles","city_state":"CA","industry":"Real estate","ranking":"321","employee":52000,"city_lat":34.111245,"city_lon":-118.450155,"dropbox":10756},{"name":"Avon Products","url":"http://fortune.com/fortune500/avon-products-322/","city_name":"New York","city_state":"NY","industry":"Household and Personal Products","ranking":"322","employee":33200,"city_lat":40.710537,"city_lon":-74.016323,"dropbox":10263},{"name":"Republic Services","url":"http://fortune.com/fortune500/republic-services-323/","city_name":"Phoenix","city_state":"AZ","industry":"Waste Management","ranking":"323","employee":31000,"city_lat":33.559113,"city_lon":-112.133168,"dropbox":988},{"name":"Universal Health Services","url":"http://fortune.com/fortune500/universal-health-services-324/","city_name":"King of Prussia","city_state":"PA","industry":"Health Care: Medical Facilities","ranking":"324","employee":58700,"city_lat":40.095581,"city_lon":-75.373706,"dropbox":17509},{"name":"Darden Restaurants","url":"http://fortune.com/fortune500/darden-restaurants-325/","city_name":"Orlando","city_state":"FL","industry":"Food Services","ranking":"325","employee":206489,"city_lat":28.487102,"city_lon":-81.408162,"dropbox":30154},{"name":"Steel Dynamics","url":"http://fortune.com/fortune500/steel-dynamics-326/","city_name":"Fort Wayne","city_state":"IN","industry":"Metals","ranking":"326","employee":7780,"city_lat":41.195783,"city_lon":-85.119088,"dropbox":1679},{"name":"SunTrust Banks","url":"http://fortune.com/fortune500/suntrust-banks-327/","city_name":"Atlanta","city_state":"GA","industry":"Commercial Banks","ranking":"327","employee":24638,"city_lat":33.937772,"city_lon":-84.271645,"dropbox":5690},{"name":"Caesars Entertainment","url":"http://fortune.com/fortune500/caesars-entertainment-328/","city_name":"Las Vegas","city_state":"NV","industry":"Hotels, Casinos, Resorts","ranking":"328","employee":68000,"city_lat":36.209234,"city_lon":-115.294123,"dropbox":4354},{"name":"Targa Resources","url":"http://fortune.com/fortune500/targa-resources-329/","city_name":"Houston","city_state":"TX","industry":"Pipelines","ranking":"329","employee":1350,"city_lat":29.670869,"city_lon":-95.586613,"dropbox":50},{"name":"Dollar Tree","url":"http://fortune.com/fortune500/dollar-tree-330/","city_name":"Chesapeake","city_state":"VA","industry":"Specialty Retailers: Other","ranking":"330","employee":54050,"city_lat":36.813963,"city_lon":-76.240555,"dropbox":9828},{"name":"News Corp.","url":"http://fortune.com/fortune500/news-corp-331/","city_name":"New York","city_state":"NY","industry":"Publishing, Printing","ranking":"331","employee":22000,"city_lat":40.710537,"city_lon":-74.016323,"dropbox":5191},{"name":"Ball","url":"http://fortune.com/fortune500/ball-332/","city_name":"Broomfield","city_state":"CO","industry":"Packaging, Containers","ranking":"332","employee":14500,"city_lat":39.924513,"city_lon":-105.060902,"dropbox":2580},{"name":"Thrivent Financial for Lutherans","url":"http://fortune.com/fortune500/thrivent-financial-for-lutherans-333/","city_name":"Minneapolis","city_state":"MN","industry":"Insurance: Life, Health (Mutual)","ranking":"333","employee":3062,"city_lat":44.981562,"city_lon":-93.23928,"dropbox":1112},{"name":"Masco","url":"http://fortune.com/fortune500/masco-334/","city_name":"Taylor","city_state":"MI","industry":"Home Equipment, Furnishings","ranking":"334","employee":32000,"city_lat":42.231738,"city_lon":-83.267269,"dropbox":4589},{"name":"Franklin Resources","url":"http://fortune.com/fortune500/franklin-resources-335/","city_name":"San Mateo","city_state":"CA","industry":"Securities","ranking":"335","employee":9266,"city_lat":37.539495,"city_lon":-122.299796,"dropbox":2730},{"name":"Avis Budget Group","url":"http://fortune.com/fortune500/avis-budget-group-336/","city_name":"Parsippany","city_state":"NJ","industry":"Automotive Retailing, Services","ranking":"336","employee":26250,"city_lat":40.862106,"city_lon":-74.411663,"dropbox":96},{"name":"Reynolds American","url":"http://fortune.com/fortune500/reynolds-american-337/","city_name":"Winston-Salem","city_state":"NC","industry":"Tobacco","ranking":"337","employee":5350,"dropbox":673},{"name":"Becton Dickinson","url":"http://fortune.com/fortune500/becton-dickinson-338/","city_name":"Franklin Lakes","city_state":"NJ","industry":"Medical Products and Equipment","ranking":"338","employee":30619,"city_lat":41.008095,"city_lon":-74.211347,"dropbox":8913},{"name":"Priceline Group","url":"http://fortune.com/fortune500/priceline-group-339/","city_name":"Norwalk","city_state":"CT","industry":"Internet Services and Retailing","ranking":"339","employee":12700,"city_lat":41.101382,"city_lon":-73.401119,"dropbox":1649},{"name":"Broadcom","url":"http://fortune.com/fortune500/broadcom-340/","city_name":"Irvine","city_state":"CA","industry":"Semiconductors and Other Electronic Components","ranking":"340","employee":10650,"city_lat":33.707495,"city_lon":-117.765533,"dropbox":2181},{"name":"Tenneco","url":"http://fortune.com/fortune500/tenneco-341/","city_name":"Lake Forest","city_state":"IL","industry":"Motor Vehicles and Parts","ranking":"341","employee":29000,"city_lat":42.237398,"city_lon":-87.848154,"dropbox":8763},{"name":"Campbell Soup","url":"http://fortune.com/fortune500/campbell-soup-342/","city_name":"Camden","city_state":"NJ","industry":"Food Consumer Products","ranking":"342","employee":19400,"city_lat":39.948417,"city_lon":-75.086382,"dropbox":244},{"name":"AECOM","url":"http://fortune.com/fortune500/aecom-343/","city_name":"Los Angeles","city_state":"CA","industry":"Engineering, Construction","ranking":"343","employee":43300,"city_lat":34.111245,"city_lon":-118.450155,"dropbox":8973},{"name":"Visteon","url":"http://fortune.com/fortune500/visteon-344/","city_name":"Van Buren Township","city_state":"MI","industry":"Motor Vehicles and Parts","ranking":"344","employee":25500,"dropbox":2811},{"name":"Delek US Holdings","url":"http://fortune.com/fortune500/delek-us-holdings-345/","city_name":"Brentwood","city_state":"TN","industry":"Petroleum Refining","ranking":"345","employee":4361,"city_lat":36.006272,"city_lon":-86.790947,"dropbox":262},{"name":"Dover","url":"http://fortune.com/fortune500/dover-346/","city_name":"Downers Grove","city_state":"IL","industry":"Industrial Machinery","ranking":"346","employee":26740,"city_lat":41.760157,"city_lon":-88.015873,"dropbox":2277},{"name":"BorgWarner","url":"http://fortune.com/fortune500/borgwarner-347/","city_name":"Auburn Hills","city_state":"MI","industry":"Motor Vehicles and Parts","ranking":"347","employee":22000,"city_lat":42.658345,"city_lon":-83.237489,"dropbox":5773},{"name":"Jarden","url":"http://fortune.com/fortune500/jarden-348/","city_name":"Boca Raton","city_state":"FL","industry":"Home Equipment, Furnishings","ranking":"348","employee":33000,"city_lat":26.390693,"city_lon":-80.216087,"dropbox":10242},{"name":"UGI","url":"http://fortune.com/fortune500/ugi-349/","city_name":"King of Prussia","city_state":"PA","industry":"Energy","ranking":"349","employee":12800,"city_lat":40.095581,"city_lon":-75.373706,"dropbox":3561},{"name":"Murphy Oil","url":"http://fortune.com/fortune500/murphy-oil-350/","city_name":"El Dorado","city_state":"AR","industry":"Mining, Crude-Oil Production","ranking":"350","employee":1712,"city_lat":33.20735,"city_lon":-92.662856,"dropbox":187},{"name":"PVH","url":"http://fortune.com/fortune500/pvh-351/","city_name":"New York","city_state":"NY","industry":"Apparel","ranking":"351","employee":25850,"city_lat":40.710537,"city_lon":-74.016323,"dropbox":2284},{"name":"Core-Mark Holding","url":"http://fortune.com/fortune500/core-mark-holding-352/","city_name":"South San Francisco","city_state":"CA","industry":"Wholesalers: Food and Grocery","ranking":"352","employee":5933,"dropbox":2107},{"name":"Calpine","url":"http://fortune.com/fortune500/calpine-353/","city_name":"Houston","city_state":"TX","industry":"Energy","ranking":"353","employee":2052,"city_lat":29.670869,"city_lon":-95.586613,"dropbox":589},{"name":"D.R. Horton","url":"http://fortune.com/fortune500/d-r-horton-354/","city_name":"Fort Worth","city_state":"TX","industry":"Homebuilders","ranking":"354","employee":5621,"city_lat":32.901017,"city_lon":-97.332671,"dropbox":300},{"name":"Weyerhaeuser","url":"http://fortune.com/fortune500/weyerhaeuser-355/","city_name":"Federal Way","city_state":"WA","industry":"Forest and Paper Products","ranking":"355","employee":12800,"city_lat":47.310358,"city_lon":-122.36123,"dropbox":4159},{"name":"KKR","url":"http://fortune.com/fortune500/kkr-356/","city_name":"New York","city_state":"NY","industry":"Securities","ranking":"356","employee":1209,"city_lat":40.710537,"city_lon":-74.016323,"dropbox":352},{"name":"FMC Technologies","url":"http://fortune.com/fortune500/fmc-technologies-357/","city_name":"Houston","city_state":"TX","industry":"Oil and Gas Equipment, Services","ranking":"357","employee":20300,"city_lat":29.670869,"city_lon":-95.586613,"dropbox":7271},{"name":"American Family Insurance Group","url":"http://fortune.com/fortune500/american-family-insurance-group-358/","city_name":"Madison","city_state":"WI","industry":"Insurance: Property and Casualty (Stock)","ranking":"358","employee":9205,"city_lat":43.03207,"city_lon":-89.499324,"dropbox":2134},{"name":"SpartanNash","url":"http://fortune.com/fortune500/spartannash-359/","city_name":"Grand Rapids","city_state":"MI","industry":"Wholesalers: Food and Grocery","ranking":"359","employee":12300,"city_lat":42.928029,"city_lon":-85.548346,"dropbox":737},{"name":"WESCO International","url":"http://fortune.com/fortune500/wesco-international-360/","city_name":"Pittsburgh","city_state":"PA","industry":"Wholesalers: Diversified","ranking":"360","employee":9400,"dropbox":706},{"name":"Quanta Services","url":"http://fortune.com/fortune500/quanta-services-361/","city_name":"Houston","city_state":"TX","industry":"Engineering, Construction","ranking":"361","employee":24600,"city_lat":29.670869,"city_lon":-95.586613,"dropbox":2442},{"name":"Mohawk Industries","url":"http://fortune.com/fortune500/mohawk-industries-362/","city_name":"Calhoun","city_state":"GA","industry":"zMiscellaneous","ranking":"362","employee":32300,"city_lat":34.496456,"city_lon":-84.934545,"dropbox":91},{"name":"Motorola Solutions","url":"http://fortune.com/fortune500/motorola-solutions-363/","city_name":"Schaumburg","city_state":"IL","industry":"Network and Other Communications Equipment","ranking":"363","employee":15000,"city_lat":42.014432,"city_lon":-88.093481,"dropbox":1969},{"name":"Lennar","url":"http://fortune.com/fortune500/lennar-364/","city_name":"Miami","city_state":"FL","industry":"Homebuilders","ranking":"364","employee":6825,"city_lat":25.661502,"city_lon":-80.441031,"dropbox":376},{"name":"TravelCenters of America","url":"http://fortune.com/fortune500/travelcenters-of-america-365/","city_name":"Westlake","city_state":"OH","industry":"Specialty Retailers: Other","ranking":"365","employee":16330,"city_lat":41.453459,"city_lon":-81.921771,"dropbox":4935},{"name":"Sealed Air","url":"http://fortune.com/fortune500/sealed-air-366/","city_name":"Charlotte","city_state":"NC","industry":"Packaging, Containers","ranking":"366","employee":24000,"city_lat":35.146685,"city_lon":-80.960421,"dropbox":1513},{"name":"Eversource Energy","url":"http://fortune.com/fortune500/eversource-energy-367/","city_name":"Springfield","city_state":"MA","industry":"Utilities: Gas and Electric","ranking":"367","employee":8248,"city_lat":42.122263,"city_lon":-72.487622,"dropbox":1751},{"name":"Coca-Cola Enterprises","url":"http://fortune.com/fortune500/coca-cola-enterprises-368/","city_name":"Atlanta","city_state":"GA","industry":"Beverages","ranking":"368","employee":11650,"city_lat":33.937772,"city_lon":-84.271645,"dropbox":2011},{"name":"Celgene","url":"http://fortune.com/fortune500/celgene-369/","city_name":"Summit","city_state":"NJ","industry":"Pharmaceuticals","ranking":"369","employee":6012,"city_lat":40.71494,"city_lon":-74.364159,"dropbox":1313},{"name":"Williams","url":"http://fortune.com/fortune500/williams-370/","city_name":"Tulsa","city_state":"OK","industry":"Energy","ranking":"370","employee":6742,"city_lat":36.109293,"city_lon":-95.85061,"dropbox":2153},{"name":"Ashland","url":"http://fortune.com/fortune500/ashland-371/","city_name":"Covington","city_state":"KY","industry":"Chemicals","ranking":"371","employee":11000,"city_lat":39.070839,"city_lon":-84.52121,"dropbox":1025},{"name":"Interpublic Group","url":"http://fortune.com/fortune500/interpublic-group-372/","city_name":"New York","city_state":"NY","industry":"Advertising, marketing","ranking":"372","employee":47400,"city_lat":40.710537,"city_lon":-74.016323,"dropbox":15495},{"name":"Blackstone Group","url":"http://fortune.com/fortune500/blackstone-group-373/","city_name":"New York","city_state":"NY","industry":"Diversified Financials","ranking":"373","employee":2190,"city_lat":40.710537,"city_lon":-74.016323,"dropbox":737},{"name":"Ralph Lauren","url":"http://fortune.com/fortune500/ralph-lauren-374/","city_name":"New York","city_state":"NY","industry":"Apparel","ranking":"374","employee":18500,"city_lat":40.710537,"city_lon":-74.016323,"dropbox":908},{"name":"Quest Diagnostics","url":"http://fortune.com/fortune500/quest-diagnostics-375/","city_name":"Madison","city_state":"NJ","industry":"Health Care: Pharmacy and Other Services","ranking":"375","employee":45000,"city_lat":40.759939,"city_lon":-74.417868,"dropbox":432},{"name":"Hershey","url":"http://fortune.com/fortune500/hershey-376/","city_name":"Hershey","city_state":"PA","industry":"Food Consumer Products","ranking":"376","employee":21625,"city_lat":40.263767,"city_lon":-76.654518,"dropbox":2778},{"name":"Terex","url":"http://fortune.com/fortune500/terex-377/","city_name":"Westport","city_state":"CT","industry":"Construction and Farm Machinery","ranking":"377","employee":20400,"city_lat":41.143433,"city_lon":-73.349579,"dropbox":1128},{"name":"Boston Scientific","url":"http://fortune.com/fortune500/boston-scientific-378/","city_name":"Marlborough","city_state":"MA","industry":"Medical Products and Equipment","ranking":"378","employee":24000,"city_lat":42.350861,"city_lon":-71.543355,"dropbox":5151},{"name":"Newmont Mining","url":"http://fortune.com/fortune500/newmont-mining-379/","city_name":"Greenwood Village","city_state":"CO","industry":"Mining, Crude-Oil Production","ranking":"379","employee":13720,"dropbox":4759},{"name":"Allergan","url":"http://fortune.com/fortune500/allergan-380/","city_name":"Irvine","city_state":"CA","industry":"Pharmaceuticals","ranking":"380","employee":10500,"city_lat":33.707495,"city_lon":-117.765533,"dropbox":2362},{"name":"O'Reilly Automotive","url":"http://fortune.com/fortune500/oreilly-automotive-381/","city_name":"Springfield","city_state":"MO","industry":"Specialty Retailers: Other","ranking":"381","employee":50853,"city_lat":37.113647,"city_lon":-93.289594,"dropbox":2917},{"name":"Casey's General Stores","url":"http://fortune.com/fortune500/caseys-general-stores-382/","city_name":"Ankeny","city_state":"IA","industry":"Specialty Retailers: Other","ranking":"382","employee":20924,"city_lat":41.72755,"city_lon":-93.602175,"dropbox":6881},{"name":"CMS Energy","url":"http://fortune.com/fortune500/cms-energy-383/","city_name":"Jackson","city_state":"MI","industry":"Utilities: Gas and Electric","ranking":"383","employee":7726,"city_lat":42.228963,"city_lon":-84.41321,"dropbox":911},{"name":"Foot Locker","url":"http://fortune.com/fortune500/foot-locker-384/","city_name":"New York","city_state":"NY","industry":"Specialty Retailers: Apparel","ranking":"384","employee":29568,"city_lat":40.710537,"city_lon":-74.016323,"dropbox":2103},{"name":"W.R. Berkley","url":"http://fortune.com/fortune500/w-r-berkley-385/","city_name":"Greenwich","city_state":"CT","industry":"Insurance: Property and Casualty (Stock)","ranking":"385","employee":7521,"city_lat":41.054885,"city_lon":-73.659405,"dropbox":2539},{"name":"PetSmart","url":"http://fortune.com/fortune500/petsmart-386/","city_name":"Phoenix","city_state":"AZ","industry":"Specialty Retailers: Other","ranking":"386","employee":39500,"city_lat":33.559113,"city_lon":-112.133168,"dropbox":2944},{"name":"Pacific Life","url":"http://fortune.com/fortune500/pacific-life-387/","city_name":"Newport Beach","city_state":"CA","industry":"Insurance: Life, Health (stock)","ranking":"387","employee":3095,"city_lat":33.623084,"city_lon":-117.92788,"dropbox":1210},{"name":"Commercial Metals","url":"http://fortune.com/fortune500/commercial-metals-388/","city_name":"Irving","city_state":"TX","industry":"Metals","ranking":"388","employee":9293,"city_lat":32.924686,"city_lon":-96.959817,"dropbox":395},{"name":"Agilent Technologies","url":"http://fortune.com/fortune500/agilent-technologies-389/","city_name":"Santa Clara","city_state":"CA","industry":"Scientific,Photographic and Control Equipment","ranking":"389","employee":21400,"city_lat":37.394673,"city_lon":-121.95394,"dropbox":3573},{"name":"Huntington Ingalls Industries","url":"http://fortune.com/fortune500/huntington-ingalls-industries-390/","city_name":"Newport News","city_state":"VA","industry":"Aerospace and Defense","ranking":"390","employee":38441,"city_lat":36.986352,"city_lon":-76.416469,"dropbox":12956},{"name":"Mutual of Omaha Insurance","url":"http://fortune.com/fortune500/mutual-of-omaha-insurance-391/","city_name":"Omaha","city_state":"NE","industry":"Insurance: Life, Health (stock)","ranking":"391","employee":5276,"city_lat":41.29552,"city_lon":-96.100793,"dropbox":1806},{"name":"Live Nation Entertainment","url":"http://fortune.com/fortune500/live-nation-entertainment-392/","city_name":"Beverly Hills","city_state":"CA","industry":"Entertainment","ranking":"392","employee":10950,"city_lat":34.061855,"city_lon":-118.399544,"dropbox":66},{"name":"Dick's Sporting Goods","url":"http://fortune.com/fortune500/dicks-sporting-goods-393/","city_name":"Coraopolis","city_state":"PA","industry":"Specialty Retailers: Other","ranking":"393","employee":24800,"dropbox":5487},{"name":"Oshkosh","url":"http://fortune.com/fortune500/oshkosh-394/","city_name":"Oshkosh","city_state":"WI","industry":"Motor Vehicles and Parts","ranking":"394","employee":12000,"city_lat":44.030356,"city_lon":-88.607015,"dropbox":2497},{"name":"Celanese","url":"http://fortune.com/fortune500/celanese-395/","city_name":"Irving","city_state":"TX","industry":"Chemicals","ranking":"395","employee":7468,"city_lat":32.924686,"city_lon":-96.959817,"dropbox":2260},{"name":"Spirit AeroSystems Holdings","url":"http://fortune.com/fortune500/spirit-aerosystems-holdings-396/","city_name":"Wichita","city_state":"KS","industry":"Aerospace and Defense","ranking":"396","employee":15250,"city_lat":37.497943,"city_lon":-97.26821,"dropbox":3772},{"name":"United Natural Foods","url":"http://fortune.com/fortune500/united-natural-foods-397/","city_name":"Providence","city_state":"RI","industry":"Wholesalers: Food and Grocery","ranking":"397","employee":8700,"city_lat":41.838294,"city_lon":-71.437684,"dropbox":2264},{"name":"Peabody Energy","url":"http://fortune.com/fortune500/peabody-energy-398/","city_name":"St. Louis","city_state":"MO","industry":"Mining, Crude-Oil Production","ranking":"398","employee":8300,"dropbox":1612},{"name":"Owens-Illinois","url":"http://fortune.com/fortune500/owens-illinois-399/","city_name":"Perrysburg","city_state":"OH","industry":"Packaging, Containers","ranking":"399","employee":21100,"city_lat":41.542926,"city_lon":-83.592727,"dropbox":6578},{"name":"Dillard's","url":"http://fortune.com/fortune500/dillards-400/","city_name":"Little Rock","city_state":"AR","industry":"General Merchandisers","ranking":"400","employee":30800,"city_lat":34.787076,"city_lon":-92.422232,"dropbox":3567},{"name":"Level 3 Communications","url":"http://fortune.com/fortune500/level-3-communications-401/","city_name":"Broomfield","city_state":"CO","industry":"Telecommunications","ranking":"401","employee":13500,"city_lat":39.924513,"city_lon":-105.060902,"dropbox":4638},{"name":"Pantry","url":"http://fortune.com/fortune500/pantry-402/","city_name":"Cary","city_state":"NC","industry":"Specialty Retailers: Other","ranking":"402","employee":10591,"city_lat":35.795642,"city_lon":-78.794061,"dropbox":1764},